{"713":{"name":"화성문화원","lng":126.920876,"lat":37.13194},"714":{"name":"발안파출소","lng":126.907456,"lat":37.131977},"715":{"name":"화중로130번길","lng":126.833531,"lat":37.638653},"716":{"name":"부일로_4","lng":126.780913,"lat":37.485857},"717":{"name":"송내역","lng":126.753159,"lat":37.487641},"718":{"name":"토당로","lng":126.818034,"lat":37.624697},"719":{"name":"검배로_2","lng":127.143136,"lat":37.597962},"702":{"name":"검배로_1","lng":127.143136,"lat":37.597962},"703":{"name":"호국로","lng":127.160441,"lat":37.847717},"704":{"name":"생골로","lng":127.062688,"lat":37.899926},"705":{"name":"의정부1동우체국","lng":127.050742,"lat":37.743556},"706":{"name":"호수로","lng":126.752181,"lat":37.513452},"707":{"name":"금곡우체국","lng":127.207185,"lat":37.634776},"708":{"name":"지봉로115번길","lng":126.81122,"lat":37.489966},"709":{"name":"경춘로_2","lng":127.143884,"lat":37.602683},"710":{"name":"덕소로","lng":127.213451,"lat":37.586243},"711":{"name":"발안남로55번길","lng":126.904148,"lat":37.130641},"712":{"name":"CGV김포","lng":126.723079,"lat":37.60678},"728":{"name":"이문안로_1","lng":127.138682,"lat":37.592144},"729":{"name":"경춘로1256번길","lng":127.236773,"lat":37.644748},"730":{"name":"한보라2로","lng":127.110704,"lat":37.254292},"731":{"name":"장기동주민센터","lng":126.671359,"lat":37.639725},"732":{"name":"양곡1로","lng":126.623708,"lat":37.651645},"733":{"name":"이문안로_2","lng":127.138682,"lat":37.592144},"734":{"name":"일산로_4","lng":126.763065,"lat":37.67952},"735":{"name":"법원리우체국","lng":126.874815,"lat":37.8492},"736":{"name":"진사길","lng":127.138772,"lat":36.989933},"737":{"name":"장자대로13번길","lng":127.131805,"lat":37.587996},"720":{"name":"소사로_4","lng":126.802341,"lat":37.515868},"721":{"name":"무궁화로_2","lng":126.787146,"lat":37.673843},"722":{"name":"호원1동주민센터","lng":127.048771,"lat":37.711992},"723":{"name":"평화로_1","lng":126.773523,"lat":37.758274},"724":{"name":"안양8동주민센터","lng":126.932119,"lat":37.384222},"725":{"name":"김포한강9로","lng":126.624505,"lat":37.645077},"726":{"name":"상일로","lng":126.746835,"lat":37.491409},"727":{"name":"송내대로73번길","lng":126.752886,"lat":37.490211},"746":{"name":"광교동주민센터","lng":127.047406,"lat":37.290206},"747":{"name":"강송로73번길","lng":126.788113,"lat":37.644689},"748":{"name":"부천시청역_3번출구","lng":126.764014,"lat":37.504656},"749":{"name":"야탑1동주민센터","lng":127.130271,"lat":37.412053},"750":{"name":"부천시외버스터미널","lng":126.75671,"lat":37.503633},"751":{"name":"운정역","lng":126.767163,"lat":37.725602},"752":{"name":"상동역","lng":126.753192,"lat":37.505789},"738":{"name":"엘에스로_2","lng":126.944194,"lat":37.372769},"739":{"name":"올레플라자양평점","lng":127.497357,"lat":37.490414},"740":{"name":"모란역정류소","lng":127.12902,"lat":37.430623},"741":{"name":"신중동역_4번출구","lng":126.776898,"lat":37.502952},"742":{"name":"부천시청역_1번출구","lng":126.764014,"lat":37.504656},"743":{"name":"청명로_2","lng":127.075973,"lat":37.255373},"744":{"name":"조마루로291번길","lng":126.776046,"lat":37.498273},"745":{"name":"구리교문동우체국","lng":127.134594,"lat":37.597063},"763":{"name":"한마음1길","lng":126.771285,"lat":37.757031},"764":{"name":"일산로_2","lng":126.763065,"lat":37.67952},"765":{"name":"관악대로_1","lng":126.935332,"lat":37.398372},"766":{"name":"철산역_1번출구","lng":126.868211,"lat":37.476193},"767":{"name":"대청로","lng":127.213369,"lat":37.539901},"768":{"name":"경춘로_1","lng":127.143884,"lat":37.602683},"769":{"name":"부천로_1","lng":126.782874,"lat":37.483909},"771":{"name":"산본시장","lng":126.938242,"lat":37.370027},"772":{"name":"부천심곡2동우편취급국","lng":126.786199,"lat":37.505684},"753":{"name":"원골로","lng":127.026065,"lat":37.784898},"754":{"name":"이천고속터미널","lng":127.446936,"lat":37.277421},"755":{"name":"송내역정류소","lng":126.751986,"lat":37.483839},"756":{"name":"오리로_2","lng":126.855658,"lat":37.479449},"758":{"name":"백석역","lng":126.788132,"lat":37.642962},"759":{"name":"신흥역_1번출구","lng":127.147538,"lat":37.440923},"760":{"name":"안중로18번길","lng":126.927437,"lat":36.983324},"761":{"name":"서부로","lng":127.02412,"lat":37.745846},"762":{"name":"정왕역","lng":126.738404,"lat":37.361703},"781":{"name":"경의로","lng":126.758728,"lat":37.705729},"782":{"name":"중앙로_2","lng":127.087929,"lat":36.994318},"784":{"name":"철산1지구대","lng":126.865177,"lat":37.486281},"785":{"name":"가평시외버스터미널","lng":127.515466,"lat":37.82459},"787":{"name":"산본역_4번출구","lng":126.933046,"lat":37.358019},"788":{"name":"평화로","lng":126.773523,"lat":37.758274},"789":{"name":"엔씨백화점NC이천점","lng":127.441059,"lat":37.281914},"790":{"name":"구리역_2번출구","lng":127.143351,"lat":37.603269},"773":{"name":"위시티로_1","lng":126.810496,"lat":37.67749},"774":{"name":"송원로86번길","lng":127.010005,"lat":37.302071},"775":{"name":"이마트시화점","lng":126.719804,"lat":37.320764},"1447":{"name":"구성1로","lng":127.14399,"lat":37.29224},"777":{"name":"도매시장로","lng":126.856724,"lat":37.307705},"778":{"name":"광명사거리역","lng":126.854874,"lat":37.479298},"779":{"name":"광덕대로_1","lng":126.830809,"lat":37.313096},"780":{"name":"현암로_3","lng":127.12575,"lat":37.331536},"10":{"name":"평택국제중앙시장","lng":127.052747,"lat":37.080739},"11":{"name":"흥덕2로75번길","lng":127.072348,"lat":37.274432},"12":{"name":"이일천랜드","lng":127.173566,"lat":37.440486},"13":{"name":"동편로","lng":126.972163,"lat":37.405343},"15":{"name":"평택고속터미널","lng":127.087861,"lat":36.990365},"17":{"name":"병점역","lng":127.033202,"lat":37.206755},"18":{"name":"하남문화원","lng":127.206763,"lat":37.543884},"19":{"name":"신장1동주민센터","lng":127.214017,"lat":37.541734},"1":{"name":"경기광주문예회관","lng":127.249375,"lat":37.409977},"2":{"name":"안성2동주민센터","lng":127.269805,"lat":37.000625},"3":{"name":"영통로323번길","lng":127.06045,"lat":37.254616},"4":{"name":"운천로","lng":127.074356,"lat":37.152184},"5":{"name":"메가박스동탄","lng":127.072784,"lat":37.204518},"6":{"name":"홈플러스김포점","lng":126.698593,"lat":37.623861},"7":{"name":"동탄중심상가1길","lng":127.071645,"lat":37.20107},"8":{"name":"정조로","lng":127.015874,"lat":37.266574},"28":{"name":"정부과천청사역_11번출구","lng":126.989868,"lat":37.426505},"29":{"name":"초당로","lng":126.673137,"lat":37.639424},"30":{"name":"청사로47번길","lng":127.069272,"lat":37.75184},"31":{"name":"화정천서로3길","lng":126.816463,"lat":37.343481},"32":{"name":"롯데시네마송탄","lng":127.060914,"lat":37.067255},"33":{"name":"백암우체국","lng":127.373425,"lat":37.164931},"35":{"name":"메가박스파주금촌","lng":126.774642,"lat":37.764884},"36":{"name":"김포한강1로_1","lng":126.669513,"lat":37.644138},"20":{"name":"문향로","lng":126.784859,"lat":37.857862},"21":{"name":"양수리정류소","lng":127.33552,"lat":37.529242},"22":{"name":"동부공원로14번길","lng":127.115889,"lat":36.992486},"23":{"name":"평택5로","lng":127.111744,"lat":36.988396},"24":{"name":"롯데시네마병점","lng":127.042612,"lat":37.214087},"25":{"name":"안양관양동우체국","lng":126.968167,"lat":37.405069},"26":{"name":"이마트흥덕점","lng":127.07333,"lat":37.275755},"27":{"name":"김포한강4로","lng":126.627777,"lat":37.64625},"46":{"name":"광덕대로_2","lng":126.830809,"lat":37.313096},"47":{"name":"판교역로192번길","lng":127.110735,"lat":37.397498},"48":{"name":"효원로","lng":127.030425,"lat":37.262885},"49":{"name":"각골로","lng":126.872314,"lat":37.294203},"50":{"name":"성남고속터미널","lng":127.127415,"lat":37.413125},"51":{"name":"고양시청로","lng":126.831978,"lat":37.658427},"52":{"name":"세지로66번길","lng":127.019637,"lat":37.257175},"53":{"name":"용인역북우편취급국","lng":127.197965,"lat":37.235206},"54":{"name":"충장로","lng":126.836142,"lat":37.625205},"55":{"name":"양지편2길","lng":126.850388,"lat":37.310924},"37":{"name":"강남동로114번길","lng":127.137716,"lat":37.273019},"38":{"name":"죽산우체국","lng":127.422393,"lat":37.075542},"39":{"name":"롯데마트평택점","lng":127.111744,"lat":36.988396},"40":{"name":"현화고등학교","lng":126.917011,"lat":36.978886},"41":{"name":"안청로","lng":126.915929,"lat":37.017522},"42":{"name":"상록수정류소","lng":126.865132,"lat":37.301794},"43":{"name":"중부대로","lng":127.108567,"lat":37.272203},"44":{"name":"용인고속터미널","lng":127.209702,"lat":37.232876},"45":{"name":"반달로7번길","lng":127.074385,"lat":37.252642},"106":{"name":"소사로_3","lng":126.802341,"lat":37.515868},"107":{"name":"안양우체국","lng":126.952671,"lat":37.39323},"128":{"name":"비전5로_2","lng":127.11303,"lat":36.999847},"129":{"name":"원평로39번길","lng":127.08308,"lat":36.988429},"70":{"name":"수원프리미엄아울렛","lng":127.075829,"lat":37.266905},"71":{"name":"평촌대로_1","lng":126.953574,"lat":37.390492},"87":{"name":"성남대로997번길","lng":127.126391,"lat":37.418559},"88":{"name":"무궁화로_1","lng":126.787146,"lat":37.673843},"108":{"name":"사우중로74번길","lng":126.721131,"lat":37.621203},"130":{"name":"수지구청","lng":127.097682,"lat":37.322115},"72":{"name":"범계역_1번출구","lng":126.950783,"lat":37.389784},"89":{"name":"박달로","lng":126.914116,"lat":37.402435},"90":{"name":"안산고잔1동우체국","lng":126.826991,"lat":37.317719},"109":{"name":"수원지방법원안양지원우편출장소","lng":126.9628,"lat":37.39642},"131":{"name":"용인구성우체국","lng":127.116602,"lat":37.29536},"73":{"name":"씨네","lng":127.444187,"lat":37.280884},"91":{"name":"신갈로_2","lng":127.107523,"lat":37.272488},"110":{"name":"화신로","lng":126.832313,"lat":37.632114},"132":{"name":"오이도로_1","lng":126.687511,"lat":37.345455},"133":{"name":"낙원역사공원","lng":127.27342,"lat":37.00513},"74":{"name":"광명우체국","lng":126.87626,"lat":37.461106},"93":{"name":"오산시외버스터미널","lng":127.06684,"lat":37.146351},"111":{"name":"신현로_2","lng":126.786135,"lat":37.406449},"1175":{"name":"불곡로","lng":127.123981,"lat":37.359119},"75":{"name":"부곡시장길","lng":126.952427,"lat":37.318203},"94":{"name":"롯데마트수지점","lng":127.082191,"lat":37.312283},"114":{"name":"신구로12번길","lng":127.112691,"lat":37.274622},"115":{"name":"주화로","lng":126.750441,"lat":37.674257},"134":{"name":"평화로_3","lng":126.773523,"lat":37.758274},"135":{"name":"삼원프라자호텔","lng":126.922656,"lat":37.398157},"76":{"name":"CGV파주문산","lng":126.784126,"lat":37.866742},"95":{"name":"평화로_2","lng":126.773523,"lat":37.758274},"96":{"name":"올레플라자화성점","lng":126.912355,"lat":37.131498},"116":{"name":"사우중로73번길","lng":126.720613,"lat":37.622497},"117":{"name":"여술3길","lng":126.846659,"lat":36.988686},"77":{"name":"부흥로_1","lng":126.76479,"lat":37.49585},"118":{"name":"광덕4로_2","lng":126.827736,"lat":37.315126},"56":{"name":"새꽃로","lng":126.772254,"lat":37.764561},"57":{"name":"세지로","lng":127.026758,"lat":37.285615},"78":{"name":"봉영로","lng":127.072816,"lat":37.252086},"98":{"name":"양주문화원","lng":126.986879,"lat":37.822182},"119":{"name":"스노우맨","lng":127.125938,"lat":37.386459},"58":{"name":"홈플러스안산고잔점","lng":126.829306,"lat":37.331119},"1176":{"name":"벌원길","lng":127.248973,"lat":37.415359},"79":{"name":"수정남로","lng":127.130013,"lat":37.439643},"80":{"name":"공단1대로_1","lng":126.728264,"lat":37.336525},"99":{"name":"발안초등학교","lng":126.911802,"lat":37.130762},"100":{"name":"CGV부천역","lng":126.780913,"lat":37.485857},"120":{"name":"오산고속터미널","lng":127.06684,"lat":37.146351},"59":{"name":"거북마루로_2","lng":127.04857,"lat":37.896184},"60":{"name":"벨라지오관광호텔","lng":126.80541,"lat":37.390506},"81":{"name":"정자일로_2","lng":127.106305,"lat":37.364618},"121":{"name":"수원북문우체국","lng":127.011479,"lat":37.293213},"61":{"name":"호국로_1","lng":127.160441,"lat":37.847717},"82":{"name":"광명사거리역_2번출구","lng":126.854874,"lat":37.479298},"102":{"name":"영창로_1","lng":127.445166,"lat":37.280714},"122":{"name":"기흥맛깔촌","lng":127.106542,"lat":37.268676},"62":{"name":"포천시청","lng":127.200333,"lat":37.894993},"83":{"name":"현암로_1","lng":127.12575,"lat":37.331536},"103":{"name":"공단1대로_2","lng":126.728264,"lat":37.336525},"123":{"name":"풍덕천로96번길","lng":127.09329,"lat":37.321448},"63":{"name":"미금로","lng":127.161492,"lat":37.615459},"84":{"name":"연무로","lng":127.026263,"lat":37.295262},"85":{"name":"인창지구대","lng":127.141516,"lat":37.60545},"104":{"name":"파주금촌동우체국","lng":126.775108,"lat":37.762424},"124":{"name":"경안동주민센터","lng":127.257274,"lat":37.410919},"64":{"name":"수원농수산물도매시장","lng":127.03154,"lat":37.255488},"65":{"name":"경기안양6동우편취급국","lng":126.934263,"lat":37.386305},"86":{"name":"병점2로","lng":127.050521,"lat":37.211557},"105":{"name":"금촌119안전센터","lng":126.780449,"lat":37.753891},"126":{"name":"장다리로_2","lng":127.028665,"lat":37.274217},"67":{"name":"어정로_1","lng":127.140376,"lat":37.274727},"127":{"name":"중앙로_1","lng":127.087929,"lat":36.994318},"69":{"name":"안산고속버스터미널","lng":126.84627,"lat":37.316848},"185":{"name":"범계역","lng":126.950783,"lat":37.389784},"186":{"name":"행신1동주민센터","lng":126.835906,"lat":37.62233},"187":{"name":"상2동주민센터","lng":126.754394,"lat":37.500538},"206":{"name":"올레플라자수원점","lng":127.024201,"lat":37.261996},"207":{"name":"남양주장현우편취급국","lng":127.183835,"lat":37.719865},"148":{"name":"평택로32번길","lng":127.089388,"lat":36.991179},"149":{"name":"금빛로","lng":126.767637,"lat":37.752226},"167":{"name":"심곡119센터","lng":126.677246,"lat":37.543383},"188":{"name":"장곡로","lng":126.784411,"lat":37.378017},"208":{"name":"뉴코아아울렛동수원점","lng":127.034269,"lat":37.266259},"150":{"name":"화성와우우편취급국","lng":126.976639,"lat":37.213476},"168":{"name":"철산4동주민센터","lng":126.862106,"lat":37.477393},"189":{"name":"포천선단우편취급국","lng":127.162206,"lat":37.851846},"151":{"name":"광덕4로_1","lng":126.827736,"lat":37.315126},"169":{"name":"고촌읍주민센터","lng":126.770927,"lat":37.603292},"190":{"name":"안양남부시장","lng":126.924687,"lat":37.395947},"209":{"name":"청명로21번길","lng":127.079207,"lat":37.24996},"210":{"name":"인덕원역_6번출구","lng":126.97668,"lat":37.401494},"152":{"name":"부천고강동우체국","lng":126.817014,"lat":37.526845},"170":{"name":"경기대로1376번길","lng":127.065763,"lat":37.068552},"171":{"name":"부일로_3","lng":126.780913,"lat":37.485857},"191":{"name":"덕영대로1201번길","lng":127.022682,"lat":37.249939},"211":{"name":"문화극장","lng":127.055814,"lat":37.908289},"153":{"name":"중앙2로_2","lng":127.088686,"lat":36.991488},"172":{"name":"무원로6번길","lng":126.833729,"lat":37.614717},"192":{"name":"부발정류소","lng":127.488532,"lat":37.28489},"193":{"name":"심곡로","lng":127.076612,"lat":37.305764},"136":{"name":"경기대로","lng":127.072704,"lat":37.140661},"137":{"name":"신원로","lng":126.889702,"lat":37.664737},"154":{"name":"사릉로","lng":127.207557,"lat":37.634234},"173":{"name":"마두역_1번출구","lng":126.777611,"lat":37.652241},"194":{"name":"애련정로","lng":127.451479,"lat":37.276852},"138":{"name":"승두길","lng":127.171247,"lat":36.998536},"155":{"name":"정자일로_1","lng":127.106305,"lat":37.364618},"156":{"name":"비둘기공원7길","lng":126.792759,"lat":37.443006},"174":{"name":"이섭대천로_1","lng":127.458958,"lat":37.294137},"195":{"name":"제일로","lng":127.138022,"lat":37.432696},"196":{"name":"오리역","lng":127.108949,"lat":37.339831},"139":{"name":"송탄2로49번길","lng":127.056159,"lat":37.072803},"140":{"name":"안중터미널","lng":126.923349,"lat":36.977677},"175":{"name":"대은로","lng":126.798468,"lat":37.445366},"197":{"name":"고읍남로191번길","lng":127.079208,"lat":37.792724},"198":{"name":"대학10길","lng":127.225506,"lat":37.001423},"141":{"name":"수원시청역_1번출구","lng":127.030857,"lat":37.261923},"176":{"name":"원미구청","lng":126.787017,"lat":37.496595},"199":{"name":"매산로","lng":127.002266,"lat":37.267373},"142":{"name":"극동스포랜드","lng":126.816238,"lat":37.30401},"177":{"name":"소사로_1","lng":126.802341,"lat":37.515868},"200":{"name":"부흥로_3","lng":126.76479,"lat":37.49585},"201":{"name":"부흥로_2","lng":126.76479,"lat":37.49585},"143":{"name":"풍덕천로_3","lng":127.09519,"lat":37.323106},"160":{"name":"평남로_2","lng":127.111441,"lat":37.000417},"178":{"name":"동구릉로85번길","lng":127.132336,"lat":37.609675},"179":{"name":"내정로17번길","lng":127.11398,"lat":37.362716},"202":{"name":"경춘로_1","lng":127.143884,"lat":37.602683},"203":{"name":"고양고속터미널","lng":126.789759,"lat":37.643275},"144":{"name":"부천시청역_4번출구","lng":126.764014,"lat":37.504656},"161":{"name":"중앙로_2","lng":127.087929,"lat":36.994318},"162":{"name":"정조로715번길","lng":127.014769,"lat":37.26912},"180":{"name":"경수대로_2","lng":127.021664,"lat":37.249935},"163":{"name":"이천일아울렛수원점","lng":127.107248,"lat":37.349012},"181":{"name":"오정지구대","lng":126.815746,"lat":37.530972},"204":{"name":"효행로_2","lng":126.972891,"lat":37.222479},"145":{"name":"동서촌로","lng":127.062356,"lat":36.964272},"146":{"name":"롯데시네마용인","lng":127.116498,"lat":37.274166},"164":{"name":"미사중학교","lng":127.199628,"lat":37.558511},"182":{"name":"양주덕정동우체국","lng":127.063974,"lat":37.844189},"205":{"name":"태평로73번길","lng":127.050401,"lat":37.739766},"147":{"name":"중앙로_1","lng":127.087929,"lat":36.994318},"165":{"name":"CGV김포운양","lng":126.684126,"lat":37.654713},"183":{"name":"일죽시외버스터미널","lng":127.4775,"lat":37.094057},"184":{"name":"삼리로","lng":126.844665,"lat":37.304982},"166":{"name":"광명사거리역_6번출구","lng":126.854874,"lat":37.479298},"259":{"name":"둔촌대로457번길","lng":127.168685,"lat":37.432419},"260":{"name":"매산동주민센터","lng":127.005694,"lat":37.268715},"278":{"name":"중리천로","lng":127.444157,"lat":37.279644},"279":{"name":"수원역_10번출구","lng":127.000095,"lat":37.26579},"221":{"name":"롯데마트구리점","lng":127.140918,"lat":37.613139},"222":{"name":"비산1동주민센터","lng":126.961456,"lat":37.406044},"239":{"name":"개내교1길","lng":127.253431,"lat":37.014102},"240":{"name":"비전9길","lng":127.111473,"lat":37.003093},"261":{"name":"뉴코아아울렛광명점","lng":126.879292,"lat":37.4611},"280":{"name":"수원역","lng":127.000095,"lat":37.26579},"223":{"name":"통복시장","lng":127.083465,"lat":36.99685},"241":{"name":"금산1길","lng":127.269786,"lat":37.011803},"242":{"name":"안성우체국","lng":127.262948,"lat":37.008605},"262":{"name":"신갈로_1","lng":127.107523,"lat":37.272488},"263":{"name":"강남로","lng":127.126637,"lat":37.271287},"281":{"name":"명학역_2번출구","lng":126.935593,"lat":37.38446},"224":{"name":"오산로132번길","lng":127.070986,"lat":37.137095},"225":{"name":"공도4로","lng":127.172541,"lat":37.001046},"243":{"name":"서재로","lng":127.101714,"lat":37.011103},"244":{"name":"고잔로","lng":126.83804,"lat":37.31857},"264":{"name":"포곡로118번길","lng":127.225129,"lat":37.268773},"282":{"name":"수지119안전센터","lng":127.100165,"lat":37.326092},"283":{"name":"중부대로448번길","lng":127.059404,"lat":37.26654},"226":{"name":"안성맞춤대로","lng":127.268339,"lat":36.985082},"245":{"name":"삼태기1길","lng":126.845283,"lat":37.307324},"265":{"name":"엔씨백화점NC고잔점","lng":126.831016,"lat":37.313531},"284":{"name":"호국로_2","lng":127.160441,"lat":37.847717},"227":{"name":"문화촌로11번길","lng":127.113832,"lat":36.996797},"246":{"name":"송탄시외버스터미널","lng":127.058944,"lat":37.079015},"266":{"name":"삼성1로","lng":127.049798,"lat":37.026977},"285":{"name":"중심상가로_1","lng":126.731959,"lat":37.346811},"228":{"name":"상동역_1번출구","lng":126.753192,"lat":37.505789},"247":{"name":"동탄119안전센터","lng":127.118202,"lat":37.183794},"267":{"name":"영통로","lng":127.057025,"lat":37.238421},"286":{"name":"삼성로168번길","lng":127.057477,"lat":37.258063},"229":{"name":"남양주시청","lng":127.216473,"lat":37.636022},"248":{"name":"중심상가로_2","lng":126.731959,"lat":37.346811},"268":{"name":"애련정로87번길","lng":127.447495,"lat":37.2789},"212":{"name":"상이로39번길","lng":126.742296,"lat":37.492113},"230":{"name":"롯데마트시화점","lng":126.730679,"lat":37.337627},"249":{"name":"진건오남로","lng":127.210024,"lat":37.679315},"250":{"name":"경기대로","lng":127.072704,"lat":37.140661},"269":{"name":"군포문화원","lng":126.954822,"lat":37.347232},"270":{"name":"올레플라자동수원점","lng":127.051062,"lat":37.273117},"213":{"name":"별내5로5번길","lng":127.112391,"lat":37.65036},"231":{"name":"태평시외버스터미널","lng":127.543996,"lat":37.204863},"251":{"name":"화산동주민센터","lng":127.014833,"lat":37.206032},"252":{"name":"안양판교로","lng":127.101221,"lat":37.382362},"271":{"name":"아주대정류소","lng":127.044803,"lat":37.274255},"214":{"name":"동부파출소","lng":127.210565,"lat":37.234622},"232":{"name":"계원대학로","lng":126.972896,"lat":37.380566},"233":{"name":"주엽역","lng":126.761264,"lat":37.670149},"253":{"name":"별내중앙로_1","lng":127.1272,"lat":37.644326},"272":{"name":"리젠시호텔","lng":127.124183,"lat":37.386755},"215":{"name":"부흥로315번길","lng":126.777228,"lat":37.497438},"234":{"name":"뉴코아아울렛평택점","lng":127.112462,"lat":36.995674},"254":{"name":"대원로","lng":127.06963,"lat":37.146627},"273":{"name":"강남동로_1","lng":127.128094,"lat":37.271362},"216":{"name":"중동로_1","lng":126.775379,"lat":37.500948},"217":{"name":"보정동주민센터","lng":127.113095,"lat":37.320188},"235":{"name":"송탄로40번길","lng":127.05801,"lat":37.052215},"255":{"name":"망포역_6번출구","lng":127.057325,"lat":37.245654},"274":{"name":"중부대로","lng":127.108567,"lat":37.272203},"275":{"name":"안산와동우편취급국","lng":126.825824,"lat":37.341074},"218":{"name":"중앙로","lng":127.087929,"lat":36.994318},"236":{"name":"신중동역","lng":126.776898,"lat":37.502952},"256":{"name":"망포역_4번출구","lng":127.057325,"lat":37.245654},"276":{"name":"이마트김포한강점","lng":126.628287,"lat":37.64434},"219":{"name":"김포1동주민센터","lng":126.705719,"lat":37.62757},"237":{"name":"정부과천청사역","lng":126.989868,"lat":37.426505},"257":{"name":"아미리정류소","lng":127.488943,"lat":37.253194},"258":{"name":"신갈동주민센터","lng":127.107034,"lat":37.272547},"277":{"name":"아주로","lng":127.043547,"lat":37.278222},"238":{"name":"시흥정왕동상가우편취급국","lng":126.722302,"lat":37.353168},"332":{"name":"금상로_2","lng":127.164147,"lat":37.442022},"220":{"name":"이마트이천점","lng":127.458958,"lat":37.294137},"343":{"name":"경수대로","lng":127.021664,"lat":37.249935},"344":{"name":"소사로_2","lng":126.802341,"lat":37.515868},"363":{"name":"이마트동백점","lng":127.151549,"lat":37.278217},"301":{"name":"대평로90번길","lng":126.994634,"lat":37.296486},"302":{"name":"심곡본1동주민센터","lng":126.778925,"lat":37.482464},"323":{"name":"태장파출소","lng":127.055426,"lat":37.240361},"324":{"name":"금정역_4번출구","lng":126.943473,"lat":37.372468},"345":{"name":"늘을1로16번안길","lng":127.241145,"lat":37.654344},"346":{"name":"연성로","lng":126.803492,"lat":37.395754},"364":{"name":"평택이충동우편취급국","lng":127.065485,"lat":37.06449},"303":{"name":"송내고등학교","lng":126.745395,"lat":37.486635},"304":{"name":"마석로","lng":127.30619,"lat":37.653604},"325":{"name":"과천동주민센터","lng":126.995461,"lat":37.448403},"347":{"name":"성남대로","lng":127.127721,"lat":37.413487},"365":{"name":"광명로","lng":126.854267,"lat":37.479744},"305":{"name":"이마트죽전점","lng":127.109934,"lat":37.325348},"306":{"name":"둔촌대로","lng":127.129799,"lat":37.432116},"307":{"name":"수원역_7번출구","lng":127.000095,"lat":37.26579},"326":{"name":"도일로","lng":127.115233,"lat":37.055892},"348":{"name":"시민대로248번길","lng":126.958951,"lat":37.392172},"349":{"name":"사기막골로_1","lng":127.176836,"lat":37.440508},"366":{"name":"롯데마트고양점","lng":126.836142,"lat":37.625205},"328":{"name":"군서마을로","lng":126.748343,"lat":37.345002},"350":{"name":"중앙로353번길","lng":127.056755,"lat":37.913837},"352":{"name":"남양주호평우편취급국","lng":127.245076,"lat":37.655418},"367":{"name":"중앙로","lng":127.087929,"lat":36.994318},"368":{"name":"고리울로51번길","lng":126.822154,"lat":37.528691},"308":{"name":"미금역_7번출구","lng":127.109007,"lat":37.350072},"287":{"name":"장다리로_3","lng":127.028665,"lat":37.274217},"288":{"name":"대왕판교로645번길","lng":127.104132,"lat":37.400959},"309":{"name":"운중로_2","lng":127.081738,"lat":37.391105},"330":{"name":"수원시청역_7번출구","lng":127.030857,"lat":37.261923},"353":{"name":"메가박스남양주","lng":127.244109,"lat":37.654822},"289":{"name":"가람로","lng":126.764978,"lat":37.734476},"290":{"name":"안양농수산물도매시장","lng":126.970096,"lat":37.38185},"310":{"name":"홈플러스병점점","lng":127.036813,"lat":37.203796},"311":{"name":"호수로856번길","lng":126.749445,"lat":37.672732},"331":{"name":"정자역_3번출구","lng":127.108097,"lat":37.366174},"354":{"name":"동두천중앙역_1","lng":127.056423,"lat":37.901781},"355":{"name":"광명사거리역_4번출구","lng":126.854874,"lat":37.479298},"291":{"name":"인계로_1","lng":127.034269,"lat":37.266259},"312":{"name":"롯데마트서현점","lng":127.132368,"lat":37.378028},"292":{"name":"세지로","lng":127.026758,"lat":37.285615},"293":{"name":"인계로_2","lng":127.034269,"lat":37.266259},"313":{"name":"소하로","lng":126.884658,"lat":37.446657},"333":{"name":"수원못골시장","lng":127.021267,"lat":37.275469},"357":{"name":"고산로_1","lng":127.194664,"lat":37.594112},"294":{"name":"김포한강1로_2","lng":126.669513,"lat":37.644138},"314":{"name":"덕양구청","lng":126.832188,"lat":37.63748},"334":{"name":"엘에스로_2","lng":126.944194,"lat":37.372769},"358":{"name":"수진역_2번출구","lng":127.140535,"lat":37.437378},"315":{"name":"경수대로","lng":127.021664,"lat":37.249935},"316":{"name":"CGV판교","lng":127.112305,"lat":37.393412},"335":{"name":"대화역","lng":126.747501,"lat":37.676157},"359":{"name":"단대오거리역_1번출구","lng":127.15677,"lat":37.445022},"296":{"name":"지행로","lng":127.054766,"lat":37.892661},"317":{"name":"시민대로_2","lng":126.963647,"lat":37.39493},"336":{"name":"지산로","lng":127.058377,"lat":37.079288},"337":{"name":"일동시외버스터미널","lng":127.317489,"lat":37.957451},"298":{"name":"복정동주민센터","lng":127.12715,"lat":37.465807},"318":{"name":"상대원119안전센터","lng":127.168993,"lat":37.432147},"319":{"name":"기아로","lng":126.885741,"lat":37.435965},"338":{"name":"하안로","lng":126.879292,"lat":37.4611},"360":{"name":"안양로329번길","lng":126.913208,"lat":37.401031},"361":{"name":"원마운트원마운트","lng":126.754526,"lat":37.664554},"299":{"name":"평촌대로_2","lng":126.953574,"lat":37.390492},"320":{"name":"이마트광명소하점","lng":126.884658,"lat":37.446657},"339":{"name":"내손순환로_1","lng":126.976585,"lat":37.388105},"341":{"name":"롯데시네마센트럴락","lng":126.83804,"lat":37.31857},"362":{"name":"메가박스수원남문","lng":127.015943,"lat":37.276445},"300":{"name":"모란역_12번출구","lng":127.129132,"lat":37.432057},"321":{"name":"역곡로","lng":126.816292,"lat":37.528097},"322":{"name":"대산로","lng":126.762418,"lat":37.675311},"342":{"name":"동화길","lng":126.955518,"lat":37.219061},"422":{"name":"수성로261번길","lng":126.99855,"lat":37.292992},"423":{"name":"예술광장로","lng":126.844809,"lat":37.329217},"442":{"name":"안산역","lng":126.789216,"lat":37.326859},"444":{"name":"백석역_7번출구","lng":126.788132,"lat":37.642962},"445":{"name":"부용로203번길","lng":127.080076,"lat":37.751078},"379":{"name":"박달시장","lng":126.909807,"lat":37.405796},"380":{"name":"금상로_1","lng":127.164147,"lat":37.442022},"402":{"name":"권중로56번길","lng":127.030263,"lat":37.252754},"403":{"name":"청명로_1","lng":127.075973,"lat":37.255373},"424":{"name":"송호1길","lng":126.84651,"lat":37.314046},"446":{"name":"고산로_2","lng":127.194664,"lat":37.594112},"447":{"name":"정재로","lng":126.864078,"lat":37.332666},"404":{"name":"지행역_2번출구","lng":127.055793,"lat":37.892343},"425":{"name":"고읍남로","lng":127.079127,"lat":37.794763},"426":{"name":"인덕원역_2번출구","lng":126.97668,"lat":37.401494},"448":{"name":"은행로167번길","lng":126.797986,"lat":37.445643},"383":{"name":"서동대로","lng":127.1995,"lat":37.007771},"384":{"name":"홈플러스분당오리점","lng":127.106996,"lat":37.340971},"405":{"name":"산성대로","lng":127.146578,"lat":37.441077},"427":{"name":"오이도로_2","lng":126.687511,"lat":37.345455},"449":{"name":"현암로_2","lng":127.12575,"lat":37.331536},"450":{"name":"선부광장1로_1","lng":126.812632,"lat":37.336165},"385":{"name":"여술4길","lng":126.844696,"lat":36.989522},"406":{"name":"원일로","lng":126.77664,"lat":37.684473},"407":{"name":"고양대로672번길","lng":126.771131,"lat":37.683613},"428":{"name":"승지로60번길","lng":126.812347,"lat":37.368226},"451":{"name":"장말로","lng":126.742038,"lat":37.494048},"386":{"name":"중앙2로_1","lng":127.088686,"lat":36.991488},"387":{"name":"덕송2로6번길","lng":127.114977,"lat":37.665589},"408":{"name":"위시티2로11번길","lng":126.81206,"lat":37.678863},"429":{"name":"숙성시장길","lng":126.981309,"lat":37.007397},"430":{"name":"롯데마트마석점","lng":127.309241,"lat":37.650105},"452":{"name":"오전공업길","lng":126.966863,"lat":37.355714},"453":{"name":"사은로","lng":127.119238,"lat":37.255147},"388":{"name":"비전5로_1","lng":127.11303,"lat":36.999847},"409":{"name":"수원정자동우편취급국","lng":126.990615,"lat":37.307119},"431":{"name":"영통역_8번출구","lng":127.071332,"lat":37.251504},"432":{"name":"롯데마트권선점","lng":127.034712,"lat":37.250258},"454":{"name":"망포역","lng":127.057325,"lat":37.245654},"410":{"name":"수원시청역","lng":127.030857,"lat":37.261923},"433":{"name":"수원고속터미널","lng":127.019829,"lat":37.25108},"369":{"name":"용구대로_2","lng":127.105048,"lat":37.305025},"390":{"name":"삼천병마로_2","lng":126.947294,"lat":37.21856},"411":{"name":"산단로","lng":127.073096,"lat":37.037767},"412":{"name":"죽전로","lng":127.114413,"lat":37.320684},"434":{"name":"건건로","lng":126.907956,"lat":37.314322},"370":{"name":"지도로35번길","lng":126.823533,"lat":37.620826},"371":{"name":"아주로","lng":127.043547,"lat":37.278222},"391":{"name":"망포중학교","lng":127.055803,"lat":37.238364},"392":{"name":"영통로","lng":127.057025,"lat":37.238421},"413":{"name":"김포한강2로24번길","lng":126.675247,"lat":37.647185},"435":{"name":"덕소우체국","lng":127.211938,"lat":37.587597},"393":{"name":"동수원로","lng":127.034712,"lat":37.250258},"414":{"name":"독바위로","lng":127.06306,"lat":37.837994},"415":{"name":"동판교로52번길","lng":127.114523,"lat":37.387082},"436":{"name":"CGV북수원","lng":127.007503,"lat":37.303547},"394":{"name":"서정로","lng":127.058775,"lat":37.066075},"395":{"name":"신봉동주민센터","lng":127.083668,"lat":37.320643},"416":{"name":"시흥정왕동우체국","lng":126.748343,"lat":37.345002},"437":{"name":"평남로_4","lng":127.111441,"lat":37.000417},"438":{"name":"CGV이천","lng":127.444157,"lat":37.279644},"373":{"name":"서정지구대","lng":127.056136,"lat":37.057124},"417":{"name":"본오3동주민센터","lng":126.863824,"lat":37.301444},"439":{"name":"구리수택3동우편취급국","lng":127.151993,"lat":37.593904},"374":{"name":"오리로_1","lng":126.855658,"lat":37.479449},"397":{"name":"오이도중앙로_2","lng":126.690458,"lat":37.347415},"398":{"name":"평남로_1","lng":127.111441,"lat":37.000417},"419":{"name":"롯데시네마진접","lng":127.186663,"lat":37.712034},"440":{"name":"평택세교동우편취급국","lng":127.080919,"lat":36.999128},"375":{"name":"매화로","lng":126.817331,"lat":37.409803},"376":{"name":"이천일아울렛안양점","lng":126.922575,"lat":37.396933},"399":{"name":"반달로","lng":127.076703,"lat":37.250994},"420":{"name":"신둔우체국","lng":127.403192,"lat":37.308206},"421":{"name":"풍덕천로_2","lng":127.09519,"lat":37.323106},"441":{"name":"미사1동주민센터","lng":127.188808,"lat":37.560316},"377":{"name":"물사랑로","lng":127.02766,"lat":37.459641},"400":{"name":"죽전역","lng":127.107505,"lat":37.324377},"401":{"name":"매영로","lng":127.057903,"lat":37.266034},"507":{"name":"삼작로_1","lng":126.762332,"lat":37.519021},"508":{"name":"청계파출소","lng":126.996373,"lat":37.389449},"509":{"name":"성남대로925번길","lng":127.127721,"lat":37.413487},"530":{"name":"서현역","lng":127.123431,"lat":37.385015},"468":{"name":"충장로","lng":126.836142,"lat":37.625205},"469":{"name":"여술1길","lng":126.843982,"lat":36.98852},"486":{"name":"도농로","lng":127.15786,"lat":37.607995},"487":{"name":"옥산로","lng":126.779874,"lat":37.516331},"510":{"name":"야탑역","lng":127.128743,"lat":37.411374},"531":{"name":"삼작로_2","lng":126.762332,"lat":37.519021},"532":{"name":"군포당동우체국","lng":126.944236,"lat":37.350568},"470":{"name":"미금역_5번출구","lng":127.109007,"lat":37.350072},"488":{"name":"양지동주민센터","lng":127.160988,"lat":37.454846},"511":{"name":"명학역","lng":126.935593,"lat":37.38446},"533":{"name":"원곡로_2","lng":126.794541,"lat":37.332484},"534":{"name":"미금역_1번출구","lng":127.109007,"lat":37.350072},"471":{"name":"평촌역","lng":126.963808,"lat":37.39424},"489":{"name":"시흥대야동우체국","lng":126.785687,"lat":37.445429},"512":{"name":"청명남로34번길","lng":127.075984,"lat":37.252913},"472":{"name":"판교역로","lng":127.112048,"lat":37.392797},"490":{"name":"의정부2동우체국","lng":127.039098,"lat":37.738546},"513":{"name":"벌말로","lng":127.138542,"lat":37.410761},"535":{"name":"정왕대로","lng":126.73678,"lat":37.346003},"536":{"name":"용구대로_1","lng":127.105048,"lat":37.305025},"473":{"name":"성남태평동우체국","lng":127.132798,"lat":37.441444},"491":{"name":"수정로_1","lng":127.141884,"lat":37.444126},"514":{"name":"정왕천로","lng":126.734165,"lat":37.326198},"515":{"name":"역곡역_1번출구","lng":126.812059,"lat":37.485315},"455":{"name":"망포역_3번출구","lng":127.057325,"lat":37.245654},"456":{"name":"고불로","lng":127.229944,"lat":37.391094},"474":{"name":"구갈로60번길","lng":127.111858,"lat":37.280136},"492":{"name":"고산로_3","lng":127.194664,"lat":37.594112},"517":{"name":"운중로_1","lng":127.081738,"lat":37.391105},"457":{"name":"구리시외버스정류장","lng":127.143489,"lat":37.60184},"475":{"name":"광명6동우체국","lng":126.851216,"lat":37.473283},"493":{"name":"덕풍북로259번길","lng":127.210808,"lat":37.547718},"494":{"name":"수원영동시장","lng":127.018686,"lat":37.276893},"519":{"name":"경수대로973번길","lng":127.004016,"lat":37.304189},"458":{"name":"삼천병마로_1","lng":126.947294,"lat":37.21856},"476":{"name":"안양박달동우체국","lng":126.911663,"lat":37.410084},"477":{"name":"수원화서아파트우편취급국","lng":126.994655,"lat":37.282265},"495":{"name":"여울로4길","lng":127.056036,"lat":37.21805},"518":{"name":"내손순환로_2","lng":126.976585,"lat":37.388105},"520":{"name":"동탄공원로3길","lng":127.061156,"lat":37.207351},"459":{"name":"구리수택동우체국","lng":127.14097,"lat":37.591333},"496":{"name":"번영로","lng":126.746609,"lat":37.328945},"521":{"name":"마지로","lng":127.142026,"lat":37.427822},"522":{"name":"선행초등학교","lng":127.026039,"lat":37.254301},"460":{"name":"중동로_3","lng":126.775379,"lat":37.500948},"478":{"name":"금정역_6번출구","lng":126.943473,"lat":37.372468},"479":{"name":"메가박스평택","lng":127.112496,"lat":36.99555},"498":{"name":"서하남로23번길","lng":127.148559,"lat":37.519385},"499":{"name":"이마트안양점","lng":126.935332,"lat":37.398372},"523":{"name":"서하남로","lng":127.14752,"lat":37.516904},"461":{"name":"장백로","lng":126.788479,"lat":37.64065},"462":{"name":"부천춘의동우편취급국","lng":126.786199,"lat":37.505684},"480":{"name":"포천동주민센터","lng":127.199919,"lat":37.89828},"500":{"name":"탄천상로","lng":127.106773,"lat":37.34079},"524":{"name":"헌릉로890번길","lng":127.129834,"lat":37.46747},"525":{"name":"산본역_3번출구","lng":126.933046,"lat":37.358019},"463":{"name":"경기강남시장","lng":126.781341,"lat":37.507242},"481":{"name":"순암로492번길","lng":127.197687,"lat":37.413959},"482":{"name":"중앙로","lng":127.087929,"lat":36.994318},"501":{"name":"관곡로77번길","lng":127.114697,"lat":37.282035},"502":{"name":"광명로","lng":126.854267,"lat":37.479744},"526":{"name":"퇴촌파출소","lng":127.307886,"lat":37.470805},"464":{"name":"효행로_1","lng":126.972891,"lat":37.222479},"465":{"name":"호현로","lng":126.791167,"lat":37.480523},"483":{"name":"올레플라자이천점","lng":127.447408,"lat":37.282147},"503":{"name":"평내정류소","lng":127.237092,"lat":37.650102},"504":{"name":"호계1동주민센터","lng":126.961104,"lat":37.371642},"527":{"name":"평촌길","lng":127.317559,"lat":37.354426},"466":{"name":"용문역","lng":127.594385,"lat":37.48261},"505":{"name":"안재로14번길","lng":126.872395,"lat":37.459929},"528":{"name":"도촌남로","lng":127.1506,"lat":37.414505},"467":{"name":"신현로_1","lng":126.786135,"lat":37.406449},"506":{"name":"의정부역_2번출구","lng":127.045957,"lat":37.738362},"529":{"name":"광명7동주민센터","lng":126.853066,"lat":37.469372},"586":{"name":"광덕1로","lng":126.847857,"lat":37.306218},"587":{"name":"중앙로","lng":127.087929,"lat":36.994318},"588":{"name":"선부광장1로_2","lng":126.812632,"lat":37.336165},"608":{"name":"송산동주민센터","lng":127.089991,"lat":37.739735},"609":{"name":"위시티로_2","lng":126.810496,"lat":37.67749},"547":{"name":"와동공원로","lng":126.820299,"lat":37.340033},"567":{"name":"갈미2로","lng":126.975075,"lat":37.37833},"568":{"name":"만현로","lng":127.08469,"lat":37.308026},"589":{"name":"평내동주민센터","lng":127.236097,"lat":37.648369},"610":{"name":"라성로","lng":126.800503,"lat":37.327191},"549":{"name":"수성로","lng":126.991717,"lat":37.287367},"550":{"name":"하성우체국","lng":126.628949,"lat":37.719346},"569":{"name":"오리로_3","lng":126.855658,"lat":37.479449},"590":{"name":"의왕신안우편취급국","lng":126.966214,"lat":37.357651},"611":{"name":"평남로_3","lng":127.111441,"lat":37.000417},"551":{"name":"이마트고잔점","lng":126.81292,"lat":37.303115},"570":{"name":"오산신장동우편취급국","lng":127.064211,"lat":37.159236},"591":{"name":"큰시장로","lng":127.051729,"lat":37.900399},"592":{"name":"모락로","lng":126.967721,"lat":37.360186},"612":{"name":"문산시외버스터미널","lng":126.787014,"lat":37.857203},"552":{"name":"경충대로","lng":127.291148,"lat":37.383193},"553":{"name":"중심상가로_3","lng":126.731959,"lat":37.346811},"571":{"name":"동탄문화센터로","lng":127.073622,"lat":37.200132},"593":{"name":"롯데시네마파주아울렛","lng":126.693093,"lat":37.717831},"594":{"name":"파주연풍우체국","lng":126.836117,"lat":37.829175},"613":{"name":"고암길","lng":127.074306,"lat":37.834926},"614":{"name":"양주덕계우편취급국","lng":127.046816,"lat":37.81986},"554":{"name":"건원대로","lng":127.140275,"lat":37.604827},"555":{"name":"안양역_1번출구","lng":126.922644,"lat":37.401857},"572":{"name":"구리인창동우체국","lng":127.142306,"lat":37.604168},"595":{"name":"이섭대천로_2","lng":127.458958,"lat":37.294137},"596":{"name":"롯데시네마안산고잔","lng":126.828797,"lat":37.308866},"615":{"name":"이충로35번길","lng":127.065969,"lat":37.059856},"556":{"name":"시흥시화고속터미널","lng":126.735838,"lat":37.34262},"573":{"name":"사기막골로_2","lng":127.176836,"lat":37.440508},"574":{"name":"구운로","lng":126.973321,"lat":37.281238},"597":{"name":"군포역_1번출구","lng":126.948518,"lat":37.354192},"616":{"name":"황금로","lng":126.62275,"lat":37.619529},"617":{"name":"동두천중앙역_2","lng":127.056423,"lat":37.901781},"557":{"name":"센트럴파크로127번길","lng":127.056014,"lat":37.294779},"575":{"name":"미필스키랜드","lng":127.122135,"lat":37.339737},"576":{"name":"엘에스로_1","lng":126.944194,"lat":37.372769},"598":{"name":"추동로","lng":127.079441,"lat":37.750823},"537":{"name":"조원로","lng":127.015395,"lat":37.300357},"558":{"name":"죽전로","lng":127.114413,"lat":37.320684},"577":{"name":"안산이동우체국","lng":126.851539,"lat":37.307178},"599":{"name":"롯데마트천천점","lng":126.98225,"lat":37.296414},"538":{"name":"곤지암우체국","lng":127.340551,"lat":37.349838},"559":{"name":"대지로","lng":127.112082,"lat":37.330965},"578":{"name":"성복2로","lng":127.082191,"lat":37.312283},"600":{"name":"오이도중앙로_1","lng":126.690458,"lat":37.347415},"539":{"name":"장다리로_1","lng":127.028665,"lat":37.274217},"560":{"name":"초지동주민센터","lng":126.816873,"lat":37.310001},"579":{"name":"광교중앙로","lng":127.057461,"lat":37.285424},"602":{"name":"정자119안전센터","lng":126.995985,"lat":37.297197},"540":{"name":"장안로7번길","lng":127.001637,"lat":37.285631},"541":{"name":"양문로","lng":127.243224,"lat":38.002097},"561":{"name":"오리역_6번출구","lng":127.108949,"lat":37.339831},"580":{"name":"서수원버스터미널","lng":126.97076,"lat":37.282533},"603":{"name":"원곡로_1","lng":126.794541,"lat":37.332484},"542":{"name":"어정로_2","lng":127.140376,"lat":37.274727},"562":{"name":"부천역","lng":126.783083,"lat":37.48399},"581":{"name":"안산천동로4길","lng":126.849613,"lat":37.335273},"582":{"name":"장미로48번길","lng":127.125497,"lat":37.412651},"604":{"name":"성복역","lng":127.080384,"lat":37.313532},"605":{"name":"원포공원1로","lng":126.81292,"lat":37.303115},"543":{"name":"경기남양우체국","lng":126.828121,"lat":37.197426},"563":{"name":"마유로","lng":126.730679,"lat":37.337627},"583":{"name":"문인로54번길","lng":127.097386,"lat":37.333549},"584":{"name":"장안로","lng":127.142775,"lat":37.370091},"606":{"name":"전곡시외버스터미널","lng":127.067686,"lat":38.025159},"544":{"name":"신흥1동주민센터","lng":127.141173,"lat":37.443043},"564":{"name":"다솜마을2길","lng":126.741291,"lat":37.350408},"565":{"name":"시흥관광호텔","lng":126.686804,"lat":37.342167},"585":{"name":"중앙로_1","lng":127.087929,"lat":36.994318},"545":{"name":"미금역_3번출구","lng":127.109007,"lat":37.350072},"566":{"name":"내손파출소","lng":126.975777,"lat":37.378766},"546":{"name":"큰솔로7번안길","lng":126.750176,"lat":37.340907},"674":{"name":"의정부민락동우체국","lng":127.09441,"lat":37.740996},"675":{"name":"삼육사로","lng":127.042433,"lat":37.905696},"676":{"name":"신흥로_2","lng":126.77648,"lat":37.500324},"694":{"name":"지행역","lng":127.055793,"lat":37.892343},"695":{"name":"영통역","lng":127.071332,"lat":37.251504},"631":{"name":"신구로","lng":127.112691,"lat":37.274622},"632":{"name":"장기로","lng":127.268084,"lat":37.005912},"633":{"name":"청사로5번길","lng":127.07037,"lat":37.749194},"653":{"name":"장항1동주민센터","lng":126.770564,"lat":37.641654},"654":{"name":"둔야로33번길","lng":127.03846,"lat":37.739106},"655":{"name":"포천우체국","lng":127.205391,"lat":37.9},"677":{"name":"의정부용현동우편취급국","lng":127.085672,"lat":37.736463},"678":{"name":"라페스타라페스타","lng":126.768308,"lat":37.661029},"696":{"name":"혜음로","lng":126.850981,"lat":37.779867},"697":{"name":"거북마루로_1","lng":127.04857,"lat":37.896184},"634":{"name":"동패로63번길","lng":126.737809,"lat":37.710391},"656":{"name":"연천역급수탑","lng":127.074399,"lat":38.101748},"698":{"name":"금촌역","lng":126.774633,"lat":37.766227},"699":{"name":"내각1로","lng":127.164666,"lat":37.703956},"635":{"name":"벽제우체국","lng":126.866081,"lat":37.687863},"657":{"name":"중앙로_2","lng":127.087929,"lat":36.994318},"700":{"name":"일산로_3","lng":126.763065,"lat":37.67952},"636":{"name":"단대오거리역_2번출구","lng":127.15677,"lat":37.445022},"658":{"name":"동두천로","lng":127.054639,"lat":37.891705},"659":{"name":"발곡로","lng":127.058317,"lat":37.730929},"680":{"name":"대산로","lng":126.762418,"lat":37.675311},"681":{"name":"수정로_2","lng":127.141884,"lat":37.444126},"701":{"name":"메가박스양주","lng":127.095936,"lat":37.745695},"637":{"name":"장곡로","lng":126.784411,"lat":37.378017},"660":{"name":"운동장지구대","lng":126.950218,"lat":37.4038},"682":{"name":"태평로","lng":127.051896,"lat":37.739015},"618":{"name":"중앙로119번길","lng":127.200703,"lat":37.8979},"638":{"name":"홈플러스포천송우점","lng":127.141324,"lat":37.824278},"639":{"name":"야당역","lng":126.761377,"lat":37.713896},"661":{"name":"봉일천우체국","lng":126.806205,"lat":37.743729},"683":{"name":"호국로","lng":127.160441,"lat":37.847717},"684":{"name":"백석역_5번출구","lng":126.788132,"lat":37.642962},"619":{"name":"산성대로","lng":127.146578,"lat":37.441077},"640":{"name":"연천경찰서","lng":127.073746,"lat":38.098329},"662":{"name":"이마트남양주점","lng":127.243053,"lat":37.655047},"685":{"name":"범골로145번길","lng":127.041313,"lat":37.736454},"620":{"name":"탄현역","lng":126.761078,"lat":37.693989},"621":{"name":"중앙2길","lng":127.276059,"lat":37.008265},"641":{"name":"화정역_3번출구","lng":126.832688,"lat":37.634644},"663":{"name":"가능역","lng":127.044288,"lat":37.748396},"686":{"name":"용현로","lng":126.835531,"lat":37.613662},"622":{"name":"중앙로","lng":127.087929,"lat":36.994318},"642":{"name":"봉천로","lng":126.807656,"lat":37.743555},"643":{"name":"역곡북부시장","lng":126.812584,"lat":37.487056},"664":{"name":"벌말로","lng":127.138542,"lat":37.410761},"665":{"name":"청평공용버스터미널","lng":127.420856,"lat":37.738119},"687":{"name":"숲속마을로","lng":126.79595,"lat":37.672888},"623":{"name":"추동로140번길","lng":127.068369,"lat":37.746868},"624":{"name":"탄중로431번길","lng":126.778419,"lat":37.687168},"666":{"name":"범골로","lng":127.041936,"lat":37.735359},"688":{"name":"롯데마트덕소점","lng":127.214615,"lat":37.58475},"625":{"name":"태봉로166번길","lng":127.141137,"lat":37.830917},"626":{"name":"통일로","lng":126.892389,"lat":37.663017},"644":{"name":"장다리로","lng":127.028665,"lat":37.274217},"645":{"name":"갤러리모자이크","lng":126.696008,"lat":37.791039},"667":{"name":"정발산역","lng":126.786513,"lat":37.671933},"689":{"name":"남양주청학우편취급국","lng":127.1164,"lat":37.709016},"627":{"name":"오목로225번길_1","lng":127.095824,"lat":37.74458},"646":{"name":"의정부녹양동우편취급국","lng":127.034086,"lat":37.754929},"647":{"name":"포천시외버스터미널","lng":127.203644,"lat":37.897467},"668":{"name":"연천로","lng":127.075354,"lat":38.096521},"669":{"name":"신곡1동주민센터","lng":127.056225,"lat":37.733098},"690":{"name":"고양본동우체국","lng":126.901793,"lat":37.703852},"628":{"name":"양곡우체국","lng":126.623276,"lat":37.655095},"648":{"name":"해밀예당1로216번길","lng":127.20262,"lat":37.718816},"670":{"name":"동일로","lng":127.056187,"lat":37.740189},"691":{"name":"망월사역_1번출구","lng":127.047418,"lat":37.710219},"629":{"name":"송우리시외버스터미널","lng":127.148145,"lat":37.82965},"649":{"name":"홈플러스진접점","lng":127.188609,"lat":37.721747},"650":{"name":"오목로225번길_2","lng":127.095824,"lat":37.74458},"671":{"name":"의정부역","lng":127.045957,"lat":37.738362},"693":{"name":"애니골길","lng":126.789086,"lat":37.673269},"630":{"name":"신흥로_1","lng":126.77648,"lat":37.500324},"651":{"name":"세이브존성남점","lng":127.153488,"lat":37.443903},"673":{"name":"시민로","lng":127.04964,"lat":37.740604},"652":{"name":"금오로","lng":126.840033,"lat":37.416796},"1282":{"name":"대야미역","lng":126.916898,"lat":37.327965},"1283":{"name":"내리1길","lng":127.220699,"lat":37.001509},"1284":{"name":"백옥대로2438번길","lng":127.250703,"lat":37.341915},"1313":{"name":"이문안로129번길","lng":127.146003,"lat":37.59287},"1314":{"name":"이문안로5번길","lng":127.131935,"lat":37.59266},"1229":{"name":"경수대로54번길","lng":127.024422,"lat":37.234165},"1231":{"name":"대야1로","lng":126.918441,"lat":37.326613},"1256":{"name":"안양4동주민센터","lng":126.917861,"lat":37.396516},"1285":{"name":"인계동주민센터","lng":127.025637,"lat":37.269639},"1286":{"name":"권광로","lng":127.03231,"lat":37.263906},"1315":{"name":"일산역","lng":126.769508,"lat":37.682229},"1316":{"name":"용현로53번길","lng":126.835467,"lat":37.617717},"1232":{"name":"풍덕천로189번길","lng":127.101073,"lat":37.327113},"1233":{"name":"포은대로313번길","lng":127.083909,"lat":37.314289},"1257":{"name":"서호초등학교","lng":126.990318,"lat":37.26624},"1258":{"name":"덕영대로425번길","lng":126.970142,"lat":37.303017},"1287":{"name":"기흥역_1번출구","lng":127.117046,"lat":37.275453},"1288":{"name":"영통로90번길","lng":127.0596,"lat":37.237601},"1317":{"name":"김포대로761번길","lng":126.725567,"lat":37.6138},"1318":{"name":"대화동주민센터","lng":126.755141,"lat":37.682985},"1234":{"name":"안산원초우편취급국","lng":126.7962,"lat":37.326894},"1235":{"name":"곡선로50번길","lng":127.029939,"lat":37.238567},"1259":{"name":"구성역","lng":127.105696,"lat":37.298979},"1260":{"name":"수성로262번길","lng":127.001725,"lat":37.289704},"1289":{"name":"권선1동주민센터","lng":127.024583,"lat":37.257743},"1319":{"name":"율동초등학교","lng":126.778889,"lat":37.675485},"1320":{"name":"일산로286번길","lng":126.787366,"lat":37.661864},"1236":{"name":"부곡중앙남6길","lng":126.953777,"lat":37.320867},"1237":{"name":"경수대로_1","lng":127.021664,"lat":37.249935},"1290":{"name":"당수파출소","lng":126.941942,"lat":37.291798},"1291":{"name":"샘골로","lng":126.862851,"lat":37.297392},"1321":{"name":"일산로636번길","lng":126.758363,"lat":37.683816},"1238":{"name":"사은로126번길","lng":127.120684,"lat":37.254286},"1261":{"name":"죽전로43번길","lng":127.111946,"lat":37.321281},"1262":{"name":"매원로","lng":127.048078,"lat":37.267943},"1292":{"name":"샘마을길_1","lng":126.951427,"lat":37.217473},"1293":{"name":"중부대로788번길","lng":127.138873,"lat":37.257138},"1323":{"name":"마상로57번길","lng":126.831955,"lat":37.66429},"1324":{"name":"맷돌로91번길","lng":127.300954,"lat":37.658206},"1239":{"name":"송부로291번안길","lng":126.944876,"lat":37.321028},"1240":{"name":"일월로22번길","lng":126.981032,"lat":37.285644},"1263":{"name":"천일초등학교","lng":126.97815,"lat":37.300965},"1264":{"name":"서그내로53번길","lng":127.0764,"lat":37.242937},"1294":{"name":"수기초등학교","lng":126.980125,"lat":37.201476},"1295":{"name":"선진6길","lng":126.845894,"lat":37.281356},"1325":{"name":"토당로","lng":126.818034,"lat":37.624697},"1327":{"name":"가람로21번길","lng":126.751166,"lat":37.734145},"1241":{"name":"장화2길","lng":126.848642,"lat":37.283753},"1265":{"name":"포곡로61번길","lng":127.212398,"lat":37.270184},"1266":{"name":"백옥대로1910번길","lng":127.234596,"lat":37.296719},"1296":{"name":"선진4길_1","lng":126.852122,"lat":37.28023},"1297":{"name":"미금일로","lng":127.107248,"lat":37.349012},"1212":{"name":"도촌로7번길","lng":127.1498,"lat":37.414762},"1213":{"name":"직행고속버스정류소","lng":126.950969,"lat":37.385188},"1214":{"name":"고산길","lng":127.23115,"lat":37.370392},"1242":{"name":"동화역말길","lng":126.967141,"lat":37.216481},"1243":{"name":"조원로24번길","lng":127.020324,"lat":37.297992},"1244":{"name":"율천동주민센터","lng":126.971402,"lat":37.29763},"1267":{"name":"수성로275번길","lng":126.999418,"lat":37.294678},"1268":{"name":"팔달로_2","lng":127.004003,"lat":37.278951},"1269":{"name":"화랑로","lng":126.869925,"lat":37.608811},"1298":{"name":"봉영로1482번길","lng":127.065748,"lat":37.245184},"1299":{"name":"비룡로","lng":127.262885,"lat":37.015073},"1215":{"name":"오포로","lng":127.181646,"lat":37.345397},"1245":{"name":"부곡초등1길","lng":126.952194,"lat":37.316635},"1270":{"name":"고양초등학교","lng":126.899675,"lat":37.703259},"1300":{"name":"당진로15번길","lng":126.939071,"lat":37.292137},"1217":{"name":"와동공원로_1","lng":126.820299,"lat":37.340033},"1218":{"name":"군자동주민센터","lng":126.785,"lat":37.340008},"1246":{"name":"효정초등학교","lng":127.034933,"lat":37.255113},"1247":{"name":"포곡로118번길","lng":127.225129,"lat":37.268773},"1271":{"name":"충장로3안길","lng":126.859766,"lat":37.293216},"1272":{"name":"영통로153번길","lng":127.054172,"lat":37.242035},"1301":{"name":"대월우체국","lng":127.494294,"lat":37.222128},"1302":{"name":"서희로82번길","lng":127.446505,"lat":37.282407},"1219":{"name":"번영로557번길","lng":126.936761,"lat":37.361187},"1248":{"name":"원곡1로","lng":126.795313,"lat":37.330398},"1273":{"name":"관인터미널","lng":127.250145,"lat":38.158018},"1274":{"name":"남천로","lng":127.445854,"lat":37.27672},"1303":{"name":"세류1동주민센터","lng":127.025637,"lat":37.269639},"1304":{"name":"한일로9번길","lng":127.103008,"lat":37.24349},"1220":{"name":"호국로597번길","lng":126.979499,"lat":37.720712},"1221":{"name":"덕송2로10번길","lng":127.116792,"lat":37.666679},"1249":{"name":"수원구운동우편취급국","lng":126.97336,"lat":37.283376},"1250":{"name":"매탄로140번길","lng":127.04669,"lat":37.262476},"1275":{"name":"미란다호텔","lng":127.451394,"lat":37.275551},"1276":{"name":"진안중학교","lng":127.037891,"lat":37.216277},"1277":{"name":"풍덕천1동주민센터","lng":127.094954,"lat":37.327963},"1305":{"name":"삼천병마로1598번길","lng":126.965261,"lat":37.245606},"1306":{"name":"성남세무서","lng":127.155231,"lat":37.447271},"1222":{"name":"시흥대로789번길","lng":126.788968,"lat":37.40706},"1223":{"name":"오리로34번길","lng":126.884303,"lat":37.408489},"1224":{"name":"평촌대로127번길","lng":126.959009,"lat":37.380849},"1251":{"name":"유엔군초전기념관","lng":127.049299,"lat":37.184495},"1252":{"name":"죽전1동주민센터","lng":127.122704,"lat":37.340268},"1278":{"name":"부곡중앙로","lng":126.949434,"lat":37.320731},"1307":{"name":"발곡초등학교","lng":127.063048,"lat":37.728372},"1225":{"name":"민속촌로","lng":127.119801,"lat":37.259615},"1226":{"name":"논곡길","lng":126.855939,"lat":37.393855},"1253":{"name":"율전로","lng":126.968235,"lat":37.296576},"1254":{"name":"충장로","lng":126.836142,"lat":37.625205},"1279":{"name":"탑동로","lng":126.973012,"lat":37.273724},"1280":{"name":"세지로174번길","lng":127.023493,"lat":37.266445},"1309":{"name":"식물원로","lng":126.862277,"lat":37.315265},"1310":{"name":"동탄하나1길","lng":127.058387,"lat":37.219147},"1227":{"name":"발이봉로","lng":127.12735,"lat":37.366378},"1228":{"name":"백운초등학교","lng":126.974831,"lat":37.385693},"1255":{"name":"의안로260번길","lng":127.247876,"lat":37.649509},"1281":{"name":"영창로","lng":127.445166,"lat":37.280714},"1311":{"name":"순못길","lng":126.716985,"lat":37.727512},"1407":{"name":"서종면주민센터","lng":127.348721,"lat":37.606576},"1409":{"name":"김포대로319번길","lng":126.771855,"lat":37.598514},"1436":{"name":"대야동주민센터","lng":126.788536,"lat":37.443046},"1437":{"name":"광명4동주민센터","lng":126.854591,"lat":37.478261},"1438":{"name":"신흥3동주민센터","lng":127.148813,"lat":37.443488},"1347":{"name":"늘을3로","lng":127.247311,"lat":37.659544},"1348":{"name":"송학2길","lng":126.762739,"lat":37.709631},"1376":{"name":"장말로294번길","lng":126.774069,"lat":37.48963},"1377":{"name":"옥산로138번길","lng":126.781911,"lat":37.505568},"1378":{"name":"부천부흥시장","lng":126.789999,"lat":37.491807},"1410":{"name":"석삼말로","lng":126.866514,"lat":37.303551},"1439":{"name":"신흥로","lng":126.77648,"lat":37.500324},"1349":{"name":"신곡로29번길","lng":126.773323,"lat":37.606319},"1351":{"name":"양오중학교","lng":127.193274,"lat":37.697565},"1379":{"name":"퇴계원역","lng":127.143537,"lat":37.648266},"1380":{"name":"김포한강9로115번길","lng":126.62368,"lat":37.646477},"1411":{"name":"천문2길","lng":126.84639,"lat":37.305513},"1412":{"name":"동탄기흥로257번나길","lng":127.089638,"lat":37.181782},"1440":{"name":"부천부곡초등학교","lng":126.773333,"lat":37.493903},"1441":{"name":"수정로","lng":127.141884,"lat":37.444126},"1352":{"name":"광동고등학교","lng":127.17656,"lat":37.7164},"1353":{"name":"호국로1051번길","lng":127.021738,"lat":37.741702},"1354":{"name":"용현로105번길","lng":127.08685,"lat":37.74331},"1381":{"name":"예현로35번길_1","lng":127.067104,"lat":37.24216},"1382":{"name":"미래로310번길","lng":126.749085,"lat":37.705248},"1413":{"name":"부천부안초등학교","lng":126.811986,"lat":37.480164},"1414":{"name":"김포한강11로140번길","lng":126.681598,"lat":37.646711},"1442":{"name":"태평4동주민센터","lng":127.141467,"lat":37.447742},"1443":{"name":"작동로54번길","lng":126.814896,"lat":37.510583},"1444":{"name":"원종로_2","lng":126.80971,"lat":37.527901},"1355":{"name":"홍유릉로248번길_2","lng":127.203229,"lat":37.629398},"1356":{"name":"황금로48번길","lng":126.625728,"lat":37.620035},"1383":{"name":"통일로768번길","lng":126.865453,"lat":37.689952},"1415":{"name":"성곡로69번길","lng":126.795975,"lat":37.518685},"1445":{"name":"고산로27번길","lng":126.980915,"lat":37.248723},"1446":{"name":"수정로120번길","lng":127.133864,"lat":37.441129},"1357":{"name":"피싱파크진산각","lng":126.690578,"lat":37.62671},"1358":{"name":"삼원로","lng":126.875545,"lat":37.642723},"1384":{"name":"중앙로","lng":127.087929,"lat":36.994318},"1416":{"name":"광교중학교","lng":127.04478,"lat":37.304442},"1417":{"name":"고색로66번길","lng":126.98444,"lat":37.250005},"1418":{"name":"오리로942번길","lng":126.858991,"lat":37.479025},"1328":{"name":"의정부부용초등학교","lng":127.090391,"lat":37.736236},"1329":{"name":"일산로380번길","lng":126.783279,"lat":37.670581},"1359":{"name":"양곡2로60번길","lng":126.630626,"lat":37.657985},"1385":{"name":"백석1동주민센터","lng":126.792489,"lat":37.649669},"1386":{"name":"가능로","lng":127.038251,"lat":37.746402},"1419":{"name":"경인로9번나길","lng":126.758197,"lat":37.48442},"1420":{"name":"은행2동주민센터","lng":127.166567,"lat":37.457044},"1330":{"name":"무원로36번길","lng":126.833548,"lat":37.61713},"1360":{"name":"고골길","lng":126.864278,"lat":37.710949},"1361":{"name":"유산길","lng":126.843858,"lat":37.725311},"1387":{"name":"진건오남로759번길","lng":127.197125,"lat":37.696128},"1388":{"name":"대화로","lng":126.746907,"lat":37.68335},"1421":{"name":"소하일로52번길","lng":126.888577,"lat":37.449962},"1422":{"name":"강상면주민센터","lng":127.477924,"lat":37.480916},"1331":{"name":"정발산동주민센터","lng":126.779859,"lat":37.672438},"1332":{"name":"잠곡로","lng":127.422634,"lat":37.737174},"1362":{"name":"홍유릉로325번길","lng":127.20291,"lat":37.632081},"1363":{"name":"김포한강1로97번길","lng":126.670713,"lat":37.647447},"1389":{"name":"해밀예당1로235번길","lng":127.203417,"lat":37.721269},"1390":{"name":"유현로33번길","lng":126.726747,"lat":37.60013},"1423":{"name":"산남초등학교","lng":127.050113,"lat":37.270642},"1333":{"name":"가평5일장","lng":127.349009,"lat":37.819689},"1334":{"name":"인창동주민센터","lng":127.140614,"lat":37.613351},"1364":{"name":"토당로104번길","lng":126.820178,"lat":37.624821},"1391":{"name":"서수원로183번길","lng":126.968496,"lat":37.243123},"1392":{"name":"부일로571번길","lng":126.791244,"lat":37.487791},"1393":{"name":"고양장촌우편취급국","lng":126.750995,"lat":37.672756},"1424":{"name":"산성역_1번출구","lng":127.149942,"lat":37.456881},"1425":{"name":"원종로9번길","lng":126.801463,"lat":37.527344},"1335":{"name":"묵현로양현1길","lng":127.292232,"lat":37.65867},"1336":{"name":"진건오남로86번길","lng":127.182896,"lat":37.657762},"1365":{"name":"금강로1573번길","lng":127.193626,"lat":37.731866},"1366":{"name":"호암로","lng":127.046815,"lat":37.709884},"1394":{"name":"강남로_1","lng":127.126637,"lat":37.271287},"1426":{"name":"이동주민센터","lng":126.84885,"lat":37.310569},"1337":{"name":"진건오남로_1","lng":127.210024,"lat":37.679315},"1367":{"name":"시민로387번길","lng":127.076726,"lat":37.735388},"1338":{"name":"양지로278번길_2","lng":127.197896,"lat":37.701263},"1368":{"name":"수청로","lng":127.045497,"lat":37.176657},"1396":{"name":"양평역","lng":127.491362,"lat":37.492793},"1398":{"name":"애니골길43번길","lng":126.789086,"lat":37.673269},"1427":{"name":"구성초등학교","lng":127.114809,"lat":37.295757},"1428":{"name":"경인로536번길","lng":126.815561,"lat":37.48474},"1339":{"name":"안골로20번길","lng":127.134151,"lat":37.594005},"1369":{"name":"경춘로995번길","lng":127.211983,"lat":37.635315},"1370":{"name":"장곡로226번길","lng":127.056991,"lat":37.723025},"1371":{"name":"김포한강2로23번길","lng":126.679372,"lat":37.641795},"1399":{"name":"구절초길","lng":126.709437,"lat":37.719741},"1400":{"name":"길주로","lng":126.805725,"lat":37.507209},"1429":{"name":"홍유릉로248번길_1","lng":127.203229,"lat":37.629398},"1340":{"name":"경의로","lng":126.758728,"lat":37.705729},"1341":{"name":"새터로12번길","lng":126.855867,"lat":37.470899},"1342":{"name":"고촌파출소","lng":126.766205,"lat":37.597843},"1372":{"name":"불암로","lng":127.110489,"lat":37.647629},"1401":{"name":"양평전자과학고등학교","lng":127.401013,"lat":37.510193},"1402":{"name":"흥신로254번길","lng":126.611111,"lat":37.680784},"1430":{"name":"경인로_1","lng":126.811067,"lat":37.484296},"1431":{"name":"가곡길","lng":127.069671,"lat":37.116375},"1432":{"name":"원종119안전센터","lng":126.808496,"lat":37.525998},"1433":{"name":"화합로610번길","lng":126.999787,"lat":37.87092},"1343":{"name":"미금로","lng":127.161492,"lat":37.615459},"1373":{"name":"호수로446번길","lng":126.78093,"lat":37.646359},"1403":{"name":"대산로212번길","lng":126.755289,"lat":37.678727},"1404":{"name":"너부대로","lng":126.847043,"lat":37.478452},"1434":{"name":"송내2동주민센터","lng":126.769591,"lat":37.482551},"1435":{"name":"부천상동시장","lng":126.763573,"lat":37.490723},"1346":{"name":"삼송역_1번출구","lng":126.895734,"lat":37.653265},"1374":{"name":"파주동패우편취급국","lng":126.73207,"lat":37.705848},"1375":{"name":"망월로13번길","lng":127.045915,"lat":37.707454},"1405":{"name":"신촌로73번길","lng":127.110919,"lat":37.309057},"1406":{"name":"신흥로119번길","lng":127.03977,"lat":37.727002},"1518":{"name":"광명새마을시장","lng":126.851172,"lat":37.473705},"1519":{"name":"삼성로20번길","lng":126.933173,"lat":37.337393},"1520":{"name":"기흥동주민센터","lng":127.115495,"lat":37.231455},"1556":{"name":"삼숭로38번길","lng":127.10579,"lat":37.794905},"1557":{"name":"전곡로","lng":127.066324,"lat":38.028285},"1558":{"name":"부흥로","lng":126.76479,"lat":37.49585},"1464":{"name":"고림초등학교","lng":127.227185,"lat":37.247559},"1465":{"name":"여치길","lng":126.702419,"lat":37.770008},"1466":{"name":"경충대로","lng":127.291148,"lat":37.383193},"1493":{"name":"정조로","lng":127.015874,"lat":37.266574},"1494":{"name":"신평로168번길","lng":127.216584,"lat":37.548339},"1521":{"name":"평화로_1","lng":126.773523,"lat":37.758274},"1522":{"name":"건건1길","lng":126.902083,"lat":37.303144},"1559":{"name":"화합로1258번길","lng":127.05374,"lat":37.845999},"1560":{"name":"용구대로","lng":127.105048,"lat":37.305025},"1561":{"name":"화합로1327번길","lng":127.064679,"lat":37.847068},"1467":{"name":"태평역_5번출구","lng":127.12775,"lat":37.439789},"1495":{"name":"이화로","lng":127.135487,"lat":37.005078},"1496":{"name":"정자1동주민센터","lng":126.991306,"lat":37.30221},"1523":{"name":"양지파출소","lng":127.286845,"lat":37.234314},"1562":{"name":"성남고등동우체국","lng":127.102364,"lat":37.427934},"1563":{"name":"진건오남로390번길_1","lng":127.206273,"lat":37.669374},"1564":{"name":"호국로1025번길","lng":127.166205,"lat":37.856828},"1468":{"name":"가래비길_2","lng":126.983816,"lat":37.826223},"1469":{"name":"능서면주민센터","lng":127.5735,"lat":37.300195},"1470":{"name":"회안대로_1","lng":127.24637,"lat":37.358945},"1497":{"name":"한양대학로","lng":126.835166,"lat":37.296438},"1498":{"name":"둔촌대로","lng":127.129799,"lat":37.432116},"1524":{"name":"큰솔로","lng":126.753449,"lat":37.341846},"1525":{"name":"성남은행초등학교","lng":127.170555,"lat":37.461219},"1565":{"name":"의정로","lng":127.035412,"lat":37.73371},"1566":{"name":"동판교로52번길","lng":127.114523,"lat":37.387082},"1471":{"name":"대성로151번길","lng":127.196495,"lat":37.527554},"1472":{"name":"수정남로_2","lng":127.130013,"lat":37.439643},"1499":{"name":"삼천병마로_2","lng":126.947294,"lat":37.21856},"1527":{"name":"내각1로73번안길","lng":127.164815,"lat":37.706466},"1528":{"name":"판교역로10번길","lng":127.112094,"lat":37.384576},"1567":{"name":"부용로185번길","lng":127.079538,"lat":37.751869},"1568":{"name":"봉미로","lng":126.783149,"lat":37.864258},"1473":{"name":"광명로","lng":126.854267,"lat":37.479744},"1474":{"name":"안성맞춤유기공방","lng":127.276747,"lat":37.005954},"1500":{"name":"성남하대원우편취급국","lng":127.153479,"lat":37.43073},"1501":{"name":"금당로","lng":126.882466,"lat":37.458985},"1530":{"name":"영통로27번길","lng":127.05618,"lat":37.231583},"1569":{"name":"사임당로","lng":126.80317,"lat":37.863825},"1570":{"name":"동탄공원로1길","lng":127.060176,"lat":37.20427},"1475":{"name":"양평중학교","lng":127.497112,"lat":37.498528},"1502":{"name":"매화로","lng":126.817331,"lat":37.409803},"1503":{"name":"금광1동주민센터","lng":127.162459,"lat":37.445023},"1531":{"name":"보광로","lng":126.907834,"lat":37.726158},"1532":{"name":"양주산성로","lng":127.002303,"lat":37.785641},"1571":{"name":"개나리18길","lng":126.977512,"lat":37.896844},"1572":{"name":"벌말로129번길","lng":127.145535,"lat":37.589887},"1477":{"name":"회안대로_2","lng":127.24637,"lat":37.358945},"1478":{"name":"다리간2길","lng":126.823252,"lat":37.313605},"1504":{"name":"대산로288번길_2","lng":127.474185,"lat":37.250006},"1533":{"name":"도일로135번길","lng":126.783605,"lat":37.343355},"1534":{"name":"진건오남로390번길_2","lng":127.206273,"lat":37.669374},"1535":{"name":"화양로","lng":126.996518,"lat":37.281249},"1448":{"name":"석천로268번길","lng":126.766038,"lat":37.511219},"1480":{"name":"새말길","lng":127.160402,"lat":37.366475},"1505":{"name":"서천동로91번길","lng":127.071356,"lat":37.233994},"1506":{"name":"시흥도원초등학교","lng":126.777983,"lat":37.440093},"1536":{"name":"평화로2349번길","lng":127.057529,"lat":37.896342},"1450":{"name":"고암길_2","lng":127.074306,"lat":37.834926},"1451":{"name":"구갈로28번길","lng":127.11392,"lat":37.278141},"1452":{"name":"경수대로_2","lng":127.021664,"lat":37.249935},"1481":{"name":"매송고색로","lng":126.975059,"lat":37.248931},"1507":{"name":"삼지곡길","lng":127.209659,"lat":37.423786},"1537":{"name":"경의로","lng":126.758728,"lat":37.705729},"1538":{"name":"김포시청","lng":126.715658,"lat":37.615269},"1539":{"name":"리치마트양주점","lng":127.045406,"lat":37.817582},"1453":{"name":"덕영대로1126번길","lng":127.013314,"lat":37.249924},"1482":{"name":"의정부가능동우체국","lng":127.034328,"lat":37.748013},"1508":{"name":"고암길_1","lng":127.074306,"lat":37.834926},"1509":{"name":"호현로","lng":126.791167,"lat":37.480523},"1540":{"name":"금학로","lng":127.190131,"lat":37.242288},"1542":{"name":"동보초등학교","lng":127.051778,"lat":37.92458},"1454":{"name":"수정남로_1","lng":127.130013,"lat":37.439643},"1455":{"name":"군서마을로","lng":126.748343,"lat":37.345002},"1483":{"name":"태평1동주민센터","lng":127.126072,"lat":37.44076},"1484":{"name":"다솜마을2길","lng":126.741291,"lat":37.350408},"1510":{"name":"소사로","lng":126.802341,"lat":37.515868},"1511":{"name":"새터로","lng":127.006563,"lat":37.253639},"1544":{"name":"일동파출소","lng":126.864359,"lat":37.312689},"1545":{"name":"산본지구대","lng":126.926558,"lat":37.367912},"1546":{"name":"화동로","lng":127.317892,"lat":37.958971},"1456":{"name":"안곡중학교","lng":126.786699,"lat":37.681039},"1457":{"name":"희망로","lng":127.146836,"lat":37.414774},"1485":{"name":"부림3길","lng":126.9976,"lat":37.438053},"1486":{"name":"동화새터길","lng":126.956785,"lat":37.220035},"1512":{"name":"귀인중학교","lng":126.963294,"lat":37.384022},"1513":{"name":"평화로1429번길","lng":127.045298,"lat":37.818789},"1547":{"name":"평화로1570번길","lng":127.053998,"lat":37.829092},"1548":{"name":"통일로","lng":126.892389,"lat":37.663017},"1458":{"name":"외삼미로15번길","lng":127.056527,"lat":37.197456},"1488":{"name":"덕소로116번길","lng":127.211151,"lat":37.584445},"1489":{"name":"예현로35번길_2","lng":127.067104,"lat":37.24216},"1514":{"name":"경춘로1922번길","lng":127.302397,"lat":37.650157},"1549":{"name":"이동면주민센터","lng":127.36879,"lat":38.031296},"1550":{"name":"문산파출소","lng":126.783329,"lat":37.854072},"1551":{"name":"은전로","lng":127.069227,"lat":38.026694},"1459":{"name":"하남지구대","lng":127.210302,"lat":37.535715},"1460":{"name":"수리남로","lng":127.201458,"lat":37.53915},"1461":{"name":"동일로677번길","lng":127.052745,"lat":37.748207},"1490":{"name":"경수대로277번길","lng":127.018247,"lat":37.252124},"1491":{"name":"성남대로1250번길","lng":127.1288,"lat":37.441868},"1515":{"name":"성남신흥동우체국","lng":127.149905,"lat":37.442364},"1516":{"name":"원종초등학교","lng":126.806357,"lat":37.518332},"1517":{"name":"성곡파출소","lng":126.800679,"lat":37.517995},"1553":{"name":"대광우체국","lng":127.107164,"lat":38.184674},"1554":{"name":"금오지구대","lng":127.066414,"lat":37.747618},"1462":{"name":"매송고색로375번길","lng":126.946275,"lat":37.244178},"1463":{"name":"맹산반딧불이자연학교","lng":127.144983,"lat":37.407512},"1492":{"name":"시민로","lng":127.04964,"lat":37.740604},"1555":{"name":"포천영북우체국","lng":127.269338,"lat":38.090947},"1638":{"name":"대야초등학교","lng":126.789802,"lat":37.446825},"1639":{"name":"부천중동시장","lng":126.764571,"lat":37.494948},"1662":{"name":"원당로59번길","lng":126.833061,"lat":37.658456},"1663":{"name":"회천1동주민센터","lng":127.066089,"lat":37.844037},"1593":{"name":"정자2동주민센터","lng":127.000442,"lat":37.295038},"1594":{"name":"증신로291번길","lng":127.435721,"lat":37.296563},"1616":{"name":"안양2동주민센터","lng":126.917829,"lat":37.405097},"1617":{"name":"경안119안전센터","lng":127.26412,"lat":37.414791},"1640":{"name":"수청로106번길","lng":127.053628,"lat":37.177162},"1664":{"name":"평화로","lng":126.773523,"lat":37.758274},"1665":{"name":"중앙2로","lng":127.088686,"lat":36.991488},"1666":{"name":"성남방송고등학교","lng":127.14773,"lat":37.427948},"1595":{"name":"매탄로","lng":127.0449,"lat":37.259489},"1618":{"name":"당산로125번길","lng":126.942925,"lat":37.361581},"1641":{"name":"애기봉로806번길","lng":126.628463,"lat":37.71799},"1642":{"name":"안정순환로172번길","lng":127.044879,"lat":36.961611},"1667":{"name":"오목로15번길","lng":127.084347,"lat":37.732489},"1668":{"name":"가능3동주민센터","lng":127.038616,"lat":37.750644},"1596":{"name":"내정로119번길","lng":127.112343,"lat":37.37318},"1619":{"name":"원종로_1","lng":126.80971,"lat":37.527901},"1620":{"name":"수성로261번길","lng":126.99855,"lat":37.292992},"1643":{"name":"괴안119안전센터","lng":126.810438,"lat":37.48271},"1644":{"name":"본오2동주민센터","lng":126.869367,"lat":37.293566},"1669":{"name":"송산1동주민센터","lng":127.086814,"lat":37.731121},"1597":{"name":"마도면주민센터","lng":126.769634,"lat":37.205474},"1621":{"name":"관양1동주민센터","lng":126.982493,"lat":37.409786},"1645":{"name":"오정로232번길","lng":126.785575,"lat":37.527872},"1670":{"name":"문원청계4길","lng":127.00958,"lat":37.42389},"1671":{"name":"평택현화우체국","lng":126.920633,"lat":36.984751},"1598":{"name":"진덕로","lng":127.217164,"lat":37.238221},"1599":{"name":"안양아트센터","lng":126.931351,"lat":37.384663},"1622":{"name":"안양로_1","lng":126.920243,"lat":37.399687},"1646":{"name":"안산월피동우편취급국","lng":126.825824,"lat":37.341074},"1573":{"name":"삼막로24번길","lng":126.914607,"lat":37.425386},"1574":{"name":"녹양로62번길","lng":127.033639,"lat":37.755889},"1600":{"name":"중부대로1281번길","lng":127.188777,"lat":37.237145},"1601":{"name":"곡선동주민센터","lng":127.033325,"lat":37.243335},"1623":{"name":"석천로171번길","lng":126.907622,"lat":37.413289},"1624":{"name":"평촌대로","lng":126.953574,"lat":37.390492},"1647":{"name":"성주로","lng":126.782409,"lat":37.482458},"1648":{"name":"올레플라자시흥점","lng":126.729045,"lat":37.336031},"1575":{"name":"평화로348번길","lng":126.7451,"lat":37.774816},"1576":{"name":"지행로107번길","lng":127.059548,"lat":37.892927},"1602":{"name":"은여울로7번길","lng":127.068395,"lat":37.159234},"1625":{"name":"금상로","lng":127.164147,"lat":37.442022},"1649":{"name":"용문시외버스터미널","lng":127.599126,"lat":37.489158},"1577":{"name":"서천동로43번길","lng":127.07673,"lat":37.236401},"1578":{"name":"박달로","lng":126.914116,"lat":37.402435},"1603":{"name":"곡선중학교","lng":127.023433,"lat":37.254536},"1604":{"name":"중동역_1번출구","lng":126.764534,"lat":37.486682},"1605":{"name":"산본1동주민센터","lng":126.938572,"lat":37.373372},"1626":{"name":"상대원3동주민센터","lng":127.168916,"lat":37.452121},"1627":{"name":"경수대로994번길","lng":127.003841,"lat":37.306832},"1650":{"name":"안성대덕우체국","lng":127.250449,"lat":37.013796},"1651":{"name":"삼성1로5길","lng":127.073837,"lat":37.224298},"1579":{"name":"신길중앙로5길","lng":126.760342,"lat":37.336481},"1580":{"name":"봇들2길","lng":126.983177,"lat":37.397999},"1581":{"name":"소사로808번길","lng":126.80508,"lat":37.527961},"1606":{"name":"왕림북길","lng":126.943112,"lat":37.202979},"1628":{"name":"파장로","lng":126.993043,"lat":37.30616},"1652":{"name":"역곡중학교","lng":126.810425,"lat":37.491352},"1653":{"name":"원당초등학교","lng":126.834952,"lat":37.662376},"1582":{"name":"원터로105번길","lng":127.142104,"lat":37.436},"1607":{"name":"호계119안전센터","lng":126.961497,"lat":37.381797},"1654":{"name":"강성로232번길","lng":126.751674,"lat":37.676415},"1583":{"name":"서부로2105번길","lng":126.969402,"lat":37.296696},"1584":{"name":"안중로8번길","lng":126.927157,"lat":36.981864},"1608":{"name":"금호로","lng":126.972294,"lat":37.274678},"1630":{"name":"정자1동주민센터","lng":126.991306,"lat":37.30221},"1655":{"name":"호국로1114번길","lng":127.019756,"lat":37.72647},"1656":{"name":"안양로329번길","lng":126.913208,"lat":37.401031},"1585":{"name":"평택4로","lng":127.101135,"lat":36.993544},"1586":{"name":"포곡로117번길","lng":127.2173,"lat":37.271732},"1610":{"name":"석호로_1","lng":126.865985,"lat":37.293725},"1631":{"name":"수택2동주민센터","lng":127.148409,"lat":37.596169},"1632":{"name":"세류2동주민센터","lng":127.025637,"lat":37.269639},"1657":{"name":"호국로","lng":127.160441,"lat":37.847717},"1658":{"name":"옥천면주민센터","lng":127.456061,"lat":37.518069},"1587":{"name":"부용로219번길","lng":127.08187,"lat":37.750319},"1588":{"name":"영창로153번길","lng":127.440136,"lat":37.282369},"1611":{"name":"안청로2길","lng":126.918231,"lat":37.017979},"1612":{"name":"연무시장","lng":127.026842,"lat":37.29546},"1633":{"name":"산성대로_1","lng":127.146578,"lat":37.441077},"1659":{"name":"신능초등학교","lng":126.83114,"lat":37.624183},"1589":{"name":"우만1동주민센터","lng":127.029486,"lat":37.28531},"1613":{"name":"설봉로","lng":127.438094,"lat":37.281647},"1614":{"name":"구운로63번길","lng":126.969769,"lat":37.279136},"1634":{"name":"안양로_3","lng":126.920243,"lat":37.399687},"1660":{"name":"원당역_6번출구","lng":126.842918,"lat":37.65311},"1590":{"name":"토성로","lng":126.931211,"lat":37.128817},"1591":{"name":"서천고등학교","lng":127.069404,"lat":37.233956},"1615":{"name":"군포초등학교","lng":126.942362,"lat":37.348217},"1635":{"name":"태평3동주민센터","lng":127.13319,"lat":37.445395},"1661":{"name":"흥안대로427번길","lng":126.973759,"lat":37.392996},"1592":{"name":"포승원정길","lng":126.841132,"lat":36.995718},"1636":{"name":"새뿔길","lng":126.773711,"lat":37.336648},"1751":{"name":"심곡로10번길","lng":126.772528,"lat":37.482942},"1752":{"name":"역말로","lng":127.203015,"lat":37.533965},"1753":{"name":"역곡2동주민센터","lng":126.807602,"lat":37.484601},"1782":{"name":"서정동주민센터","lng":127.054711,"lat":37.067769},"1783":{"name":"금령로173번길","lng":127.215017,"lat":37.234974},"1692":{"name":"금령로","lng":127.205696,"lat":37.235088},"1693":{"name":"예술대학로","lng":126.836597,"lat":37.317889},"1694":{"name":"신장1로17번길","lng":127.050866,"lat":37.082366},"1723":{"name":"남양주도농우편취급국","lng":127.156765,"lat":37.605812},"1724":{"name":"능곡로","lng":126.810744,"lat":37.368241},"1754":{"name":"서정마을2로7번길","lng":126.846263,"lat":37.622485},"1784":{"name":"화산중앙로","lng":127.011797,"lat":37.209712},"1695":{"name":"막곡길","lng":127.084218,"lat":37.040301},"1697":{"name":"서정역로36번길","lng":127.061679,"lat":37.058131},"1725":{"name":"두물로39번길","lng":127.127926,"lat":37.658081},"1726":{"name":"용정초등학교","lng":126.829675,"lat":37.640539},"1755":{"name":"동탄기흥로257번가길","lng":127.091614,"lat":37.179823},"1756":{"name":"오산대원초등학교","lng":127.071272,"lat":37.130373},"1785":{"name":"오산대역","lng":127.063076,"lat":37.16935},"1786":{"name":"비전6길","lng":127.101872,"lat":37.00618},"1698":{"name":"선부로","lng":126.806461,"lat":37.34126},"1700":{"name":"새천년로16번길","lng":127.111265,"lat":37.288307},"1727":{"name":"현중로26번길","lng":126.770694,"lat":37.693615},"1757":{"name":"내기새싹길","lng":126.872433,"lat":36.97967},"1788":{"name":"일산로372번길","lng":126.783594,"lat":37.668696},"1701":{"name":"송탄로","lng":127.05935,"lat":37.046317},"1702":{"name":"원당골1길","lng":126.877059,"lat":37.365435},"1728":{"name":"김포사계절썰매장","lng":126.552806,"lat":37.720531},"1729":{"name":"중동주민센터","lng":127.156278,"lat":37.442931},"1758":{"name":"평택5로20번길","lng":127.113209,"lat":36.990001},"1759":{"name":"양진초등학교","lng":127.141249,"lat":36.987887},"1760":{"name":"참이슬2길","lng":127.116246,"lat":36.988505},"1789":{"name":"원평로39번길","lng":127.08308,"lat":36.988429},"1790":{"name":"팽성우체국","lng":127.058233,"lat":36.967334},"1704":{"name":"양성면주민센터","lng":127.194475,"lat":37.059898},"1730":{"name":"비룡로55번길","lng":127.300779,"lat":37.657164},"1761":{"name":"조개터로42번길","lng":127.106179,"lat":36.990396},"1762":{"name":"진건오남로797번길","lng":127.201562,"lat":37.698108},"1791":{"name":"효행로","lng":126.972891,"lat":37.222479},"1705":{"name":"점촌로","lng":127.056289,"lat":37.06618},"1706":{"name":"서정북로","lng":127.060447,"lat":37.070898},"1731":{"name":"문원길","lng":126.81924,"lat":37.709938},"1732":{"name":"산성대로_2","lng":127.146578,"lat":37.441077},"1763":{"name":"애련정로125번길","lng":127.447444,"lat":37.281579},"1764":{"name":"안말로85번길","lng":127.048683,"lat":37.715491},"1765":{"name":"발안로","lng":126.918207,"lat":37.131415},"1792":{"name":"삼천병마로_1","lng":126.947294,"lat":37.21856},"1793":{"name":"경인로_2","lng":126.811067,"lat":37.484296},"1795":{"name":"부일로_1","lng":126.780913,"lat":37.485857},"1707":{"name":"설장로16번길","lng":127.520787,"lat":37.131999},"1708":{"name":"송전우체국","lng":127.198297,"lat":37.139681},"1709":{"name":"경기동로8번길","lng":127.075562,"lat":37.156256},"1733":{"name":"부천문화원","lng":126.766475,"lat":37.482523},"1734":{"name":"까치로","lng":126.80854,"lat":37.508574},"1766":{"name":"봉담초등학교","lng":126.946989,"lat":37.222881},"1767":{"name":"태평2길","lng":127.543407,"lat":37.206816},"1673":{"name":"신촌로29번길","lng":127.037958,"lat":37.751444},"1710":{"name":"문향로","lng":126.784859,"lat":37.857862},"1711":{"name":"영중면주민센터","lng":127.245149,"lat":38.005561},"1735":{"name":"상태길","lng":127.143592,"lat":37.355375},"1736":{"name":"삼천병마로1566번길","lng":126.963515,"lat":37.242638},"1768":{"name":"중앙지구대","lng":127.198225,"lat":37.23456},"1675":{"name":"하금로","lng":127.060253,"lat":37.752138},"1676":{"name":"금릉이길","lng":126.780931,"lat":37.755775},"1712":{"name":"탄현로","lng":127.059183,"lat":37.08671},"1737":{"name":"세권로316번길","lng":127.037897,"lat":37.251454},"1738":{"name":"부천북고등학교","lng":126.789072,"lat":37.518591},"1769":{"name":"서재1길","lng":127.097939,"lat":37.010816},"1770":{"name":"전곡항로14번길","lng":126.653183,"lat":37.186549},"1677":{"name":"벚꽃길","lng":127.155158,"lat":36.999349},"1678":{"name":"현신3길","lng":127.138406,"lat":36.996572},"1679":{"name":"조개터로6번길","lng":127.102707,"lat":36.987303},"1713":{"name":"발안만세길_1","lng":126.900086,"lat":37.129639},"1714":{"name":"서암로6번길","lng":126.596312,"lat":37.686995},"1715":{"name":"장다리로233번길","lng":127.025003,"lat":37.270801},"1739":{"name":"오리로366번길","lng":126.880143,"lat":37.434813},"1740":{"name":"동백죽전대로527번길","lng":127.142717,"lat":37.282793},"1771":{"name":"평남로_2","lng":127.111441,"lat":37.000417},"1772":{"name":"안성맞춤대로","lng":127.268339,"lat":36.985082},"1680":{"name":"원칠원길","lng":127.100093,"lat":37.03197},"1681":{"name":"서동대로","lng":127.1995,"lat":37.007771},"1716":{"name":"권선초등학교","lng":127.021731,"lat":37.263334},"1741":{"name":"동두천광암동우편출장소","lng":127.18676,"lat":37.942182},"1742":{"name":"대산로288번길_1","lng":127.474185,"lat":37.250006},"1773":{"name":"김포감정동우편취급국","lng":126.702555,"lat":37.627277},"1774":{"name":"비룡로","lng":127.262885,"lat":37.015073},"1682":{"name":"박달1동주민센터","lng":126.90462,"lat":37.401921},"1717":{"name":"팔달로_1","lng":127.004003,"lat":37.278951},"1718":{"name":"하탑로","lng":126.975793,"lat":37.268714},"1743":{"name":"엄상동길","lng":127.067501,"lat":37.830722},"1744":{"name":"송우로","lng":127.145275,"lat":37.828496},"1775":{"name":"한국폴리텍II안성캠퍼스","lng":127.176214,"lat":37.008503},"1684":{"name":"평남로_1","lng":127.111441,"lat":37.000417},"1685":{"name":"장당길","lng":127.065048,"lat":37.052867},"1745":{"name":"백석우체국","lng":127.000847,"lat":37.804918},"1746":{"name":"백문초등학교","lng":127.132875,"lat":37.588597},"1747":{"name":"진등로19번길","lng":127.030432,"lat":37.759728},"1776":{"name":"혜산로","lng":127.27239,"lat":37.012337},"1777":{"name":"경의로132번길","lng":127.050444,"lat":37.73042},"1778":{"name":"대림동산정류소","lng":127.203951,"lat":37.010052},"1686":{"name":"무지개공원2길","lng":127.108836,"lat":36.991096},"1688":{"name":"현신7길","lng":127.146786,"lat":37.000247},"1720":{"name":"중부대로246번길","lng":127.041853,"lat":37.274573},"1721":{"name":"신갈로124번길","lng":127.106384,"lat":37.278411},"1780":{"name":"동탄반송3길","lng":127.067932,"lat":37.210645},"1689":{"name":"통복동주민센터","lng":127.087288,"lat":37.000803},"1690":{"name":"원곡면주민센터","lng":127.129534,"lat":37.039712},"1722":{"name":"약산길","lng":126.792032,"lat":37.679322},"1750":{"name":"동두천신천초등학교","lng":127.047947,"lat":37.894281},"1781":{"name":"애니골길","lng":126.789086,"lat":37.673269},"1691":{"name":"장기로74번길","lng":127.270703,"lat":37.003062},"1814":{"name":"손곡로","lng":127.091945,"lat":37.335982},"1815":{"name":"와룡로","lng":126.896865,"lat":37.409247},"1847":{"name":"호병로1길","lng":127.195163,"lat":37.89542},"1848":{"name":"율마로384번길","lng":126.6009,"lat":37.6846},"1849":{"name":"성지로","lng":126.814151,"lat":37.52826},"1816":{"name":"칠보중학교","lng":126.944365,"lat":37.273721},"1817":{"name":"엘에스로_2","lng":126.944194,"lat":37.372769},"1852":{"name":"은행영사정로51번길","lng":126.777842,"lat":37.606828},"1818":{"name":"석호로_2","lng":126.865985,"lat":37.293725},"1853":{"name":"경춘북로","lng":127.115897,"lat":37.63315},"1854":{"name":"원앙로51번길","lng":127.203852,"lat":37.903286},"1819":{"name":"초지역_3번출구","lng":126.806473,"lat":37.32044},"1820":{"name":"팔달로","lng":127.004003,"lat":37.278951},"1856":{"name":"댕이길","lng":126.842332,"lat":37.294389},"1857":{"name":"대호로71번길","lng":127.053831,"lat":37.156372},"1858":{"name":"아침노을길","lng":126.707848,"lat":37.72792},"1859":{"name":"소하2동주민센터","lng":126.903251,"lat":37.453539},"1821":{"name":"은여울로43번길","lng":127.070867,"lat":37.159744},"1822":{"name":"화수로14번길","lng":126.831082,"lat":37.642175},"1860":{"name":"지도로","lng":126.823533,"lat":37.620826},"1796":{"name":"강송로113번길","lng":126.785619,"lat":37.648209},"1797":{"name":"까치울역_3번출구","lng":126.81134,"lat":37.506227},"1823":{"name":"부곡복지관길","lng":126.956508,"lat":37.323969},"1824":{"name":"탄현로6번길","lng":126.773663,"lat":37.69276},"1825":{"name":"진건오남로_2","lng":127.210024,"lat":37.679315},"1861":{"name":"본오로","lng":126.867254,"lat":37.293183},"1798":{"name":"내삼미로80번길","lng":127.06793,"lat":37.169496},"1826":{"name":"양지로278번길_1","lng":127.197896,"lat":37.701263},"1827":{"name":"고읍남로39번길","lng":127.078337,"lat":37.791268},"1862":{"name":"소학길","lng":126.887865,"lat":37.297255},"1863":{"name":"숲속초등학교","lng":127.06029,"lat":37.205935},"1799":{"name":"장안로","lng":127.142775,"lat":37.370091},"1800":{"name":"이현로29번길","lng":127.097111,"lat":37.304307},"1828":{"name":"큰여울길","lng":126.848719,"lat":37.780305},"1829":{"name":"고천초등학교","lng":126.975482,"lat":37.348373},"1830":{"name":"약대동주민센터","lng":126.771283,"lat":37.513282},"1864":{"name":"송산2동주민센터","lng":127.089991,"lat":37.739735},"1865":{"name":"금정초등학교","lng":126.941379,"lat":37.366645},"1801":{"name":"경인옛로","lng":126.796167,"lat":37.481397},"1802":{"name":"파장로110번길","lng":126.990664,"lat":37.309245},"1831":{"name":"소사로102번길","lng":126.798221,"lat":37.467967},"1832":{"name":"광남지구대","lng":126.848586,"lat":37.468947},"1803":{"name":"덕소로284번길","lng":127.224522,"lat":37.576445},"1833":{"name":"송북동주민센터","lng":127.060203,"lat":37.08165},"1834":{"name":"평화로758번길","lng":127.043719,"lat":37.760019},"1804":{"name":"성안길","lng":126.837876,"lat":37.301105},"1805":{"name":"신장로","lng":127.049889,"lat":37.081312},"1835":{"name":"통일동산우체국","lng":126.70036,"lat":37.770669},"1806":{"name":"한보라2로14번길","lng":127.111035,"lat":37.253978},"1807":{"name":"복정로20번길","lng":127.130454,"lat":37.454711},"1837":{"name":"두물머리길8번길","lng":127.316951,"lat":37.544231},"1838":{"name":"가래비길_1","lng":126.983816,"lat":37.826223},"1839":{"name":"아양로","lng":127.257364,"lat":37.012109},"1840":{"name":"화성장안초등학교","lng":126.824064,"lat":37.085869},"1809":{"name":"고읍남로191번길","lng":127.079208,"lat":37.792724},"1810":{"name":"호국로523번길","lng":127.130985,"lat":37.820595},"1811":{"name":"평화로2229번길","lng":127.05579,"lat":37.888225},"1841":{"name":"군자로477번길","lng":126.783707,"lat":37.347254},"1842":{"name":"동말로38번길","lng":126.998286,"lat":37.278095},"1812":{"name":"양벌로","lng":127.246373,"lat":37.371329},"1843":{"name":"여울로2길","lng":127.05157,"lat":37.204811},"1844":{"name":"부천공업고등학교","lng":126.767497,"lat":37.481115},"1813":{"name":"부곡로_1","lng":126.861996,"lat":37.330959},"1845":{"name":"아라육로58번길","lng":126.789516,"lat":37.593707},"1846":{"name":"송일로25번길","lng":127.059017,"lat":37.064413},"843":{"name":"시민대로_1","lng":126.963647,"lat":37.39493},"844":{"name":"월곶중앙로","lng":126.73897,"lat":37.388428},"865":{"name":"성복2로76번길","lng":127.080728,"lat":37.314711},"866":{"name":"상동역_3번출구","lng":126.753192,"lat":37.505789},"801":{"name":"관악대로_2","lng":126.935332,"lat":37.398372},"802":{"name":"회정로","lng":127.067515,"lat":37.837239},"868":{"name":"일현로_1","lng":126.763513,"lat":37.694235},"803":{"name":"부일로_1","lng":126.780913,"lat":37.485857},"824":{"name":"백석역_1번출구","lng":126.788132,"lat":37.642962},"825":{"name":"송탄관광호텔","lng":127.09874,"lat":37.040568},"845":{"name":"장자대로86번길","lng":127.139882,"lat":37.58706},"846":{"name":"별내3로","lng":127.117947,"lat":37.665935},"867":{"name":"하남대로","lng":127.212541,"lat":37.538453},"804":{"name":"소사로_5","lng":126.802341,"lat":37.515868},"826":{"name":"신흥역_3번출구","lng":127.147538,"lat":37.440923},"847":{"name":"덕풍동로","lng":127.208792,"lat":37.55239},"869":{"name":"영통로26번길","lng":127.068814,"lat":37.231546},"805":{"name":"안양호계3동우편취급국","lng":126.962734,"lat":37.362307},"827":{"name":"동두천중앙시장","lng":127.053721,"lat":37.906687},"848":{"name":"심곡3동주민센터","lng":127.126072,"lat":37.44076},"870":{"name":"마석정류소","lng":127.304713,"lat":37.651225},"806":{"name":"구리농수산물도매시장","lng":127.145432,"lat":37.61095},"849":{"name":"서현로","lng":127.122462,"lat":37.387106},"850":{"name":"풍덕천로_1","lng":127.09519,"lat":37.323106},"871":{"name":"마두역","lng":126.777611,"lat":37.652241},"807":{"name":"경수대로_1","lng":127.021664,"lat":37.249935},"808":{"name":"경춘로_3","lng":127.143884,"lat":37.602683},"829":{"name":"동탄반송1길","lng":127.062129,"lat":37.209516},"851":{"name":"신갈로_3","lng":127.107523,"lat":37.272488},"791":{"name":"신중동역_3번출구","lng":126.776898,"lat":37.502952},"809":{"name":"동백중앙로","lng":127.153164,"lat":37.277736},"830":{"name":"쇠재안길","lng":126.779061,"lat":37.751877},"831":{"name":"주엽역_3번출구","lng":126.761264,"lat":37.670149},"852":{"name":"고천동주민센터","lng":126.976896,"lat":37.345789},"792":{"name":"진건우체국","lng":127.179233,"lat":37.652899},"810":{"name":"동거리길","lng":126.84979,"lat":37.781237},"811":{"name":"경춘로_2","lng":127.143884,"lat":37.602683},"853":{"name":"상현역","lng":127.069364,"lat":37.297829},"854":{"name":"평화로","lng":126.773523,"lat":37.758274},"812":{"name":"홈플러스부천소사점","lng":126.814344,"lat":37.484907},"832":{"name":"중동로_2","lng":126.775379,"lat":37.500948},"833":{"name":"철산역_4번출구","lng":126.868211,"lat":37.476193},"856":{"name":"별내중앙로_2","lng":127.1272,"lat":37.644326},"794":{"name":"양근로147번길","lng":127.487897,"lat":37.492747},"813":{"name":"양평경찰서","lng":127.490509,"lat":37.488429},"814":{"name":"양평시외버스정류장","lng":127.501871,"lat":37.49104},"834":{"name":"흥안대로","lng":126.973971,"lat":37.389924},"857":{"name":"탄중로101번길","lng":126.755748,"lat":37.693001},"795":{"name":"마석역","lng":127.311687,"lat":37.652792},"815":{"name":"지산동주민센터","lng":127.057583,"lat":37.077405},"835":{"name":"초지로","lng":126.815197,"lat":37.308207},"858":{"name":"대화역_4번출구","lng":126.747501,"lat":37.676157},"796":{"name":"원종1동주민센터","lng":126.812016,"lat":37.529471},"816":{"name":"처인구청","lng":127.201357,"lat":37.234306},"817":{"name":"강남동로_2","lng":127.128094,"lat":37.271362},"836":{"name":"사임당로","lng":126.80317,"lat":37.863825},"837":{"name":"팔달문로130번길","lng":127.030654,"lat":37.280935},"859":{"name":"미래로602번길","lng":126.752321,"lat":37.731084},"797":{"name":"중앙동주민센터","lng":127.207717,"lat":37.235001},"818":{"name":"관양초등학교","lng":126.960215,"lat":37.406694},"838":{"name":"역곡역_2번출구","lng":126.812059,"lat":37.485315},"860":{"name":"부일로_2","lng":126.780913,"lat":37.485857},"798":{"name":"리치플러스스파","lng":127.243468,"lat":37.650199},"839":{"name":"백석로52번길","lng":127.044195,"lat":37.728202},"861":{"name":"파주출판도시","lng":126.68664,"lat":37.709081},"862":{"name":"회룡역_3번출구","lng":127.047295,"lat":37.723806},"799":{"name":"역말로","lng":127.203015,"lat":37.533965},"820":{"name":"행신로","lng":126.844379,"lat":37.620086},"840":{"name":"영창로_2","lng":127.445166,"lat":37.280714},"841":{"name":"이마트파주운정점","lng":126.745103,"lat":37.710384},"863":{"name":"부천로_2","lng":126.782874,"lat":37.483909},"800":{"name":"김포한강1로78번길","lng":126.669953,"lat":37.644699},"821":{"name":"왕곡로","lng":126.974916,"lat":37.34717},"822":{"name":"중앙대학로","lng":127.224807,"lat":37.000391},"842":{"name":"엘에스로_1","lng":126.944194,"lat":37.372769},"823":{"name":"당곡로","lng":126.833089,"lat":37.318608},"1047":{"name":"백석로86번길","lng":126.789237,"lat":37.646157},"1048":{"name":"마석로61번길","lng":127.304121,"lat":37.657473},"1049":{"name":"삼송역","lng":126.895734,"lat":37.653265},"1078":{"name":"산성대로382번길","lng":127.157882,"lat":37.446002},"1079":{"name":"시민대로327번길","lng":126.967131,"lat":37.397087},"1080":{"name":"사거리길","lng":127.051025,"lat":36.943043},"888":{"name":"포천송우우체국","lng":127.148091,"lat":37.830412},"1020":{"name":"화서역_1번출구","lng":126.989612,"lat":37.284002},"1021":{"name":"인현중앙길","lng":126.821124,"lat":37.323257},"1022":{"name":"삼리로","lng":126.844665,"lat":37.304982},"1050":{"name":"김포대로802번길","lng":126.724453,"lat":37.618492},"1051":{"name":"서삼릉1길","lng":126.877994,"lat":37.652662},"1081":{"name":"부부로2길","lng":126.790939,"lat":37.33266},"1082":{"name":"동편로183번길","lng":126.97001,"lat":37.40669},"1083":{"name":"고풍로43번길","lng":126.794115,"lat":37.660542},"889":{"name":"비룡로55번길","lng":127.300779,"lat":37.657164},"890":{"name":"롯데마트시흥점","lng":126.791926,"lat":37.443061},"1023":{"name":"송원로","lng":127.011351,"lat":37.304476},"1024":{"name":"현암로89번길","lng":127.119536,"lat":37.332216},"1052":{"name":"경안천로256번길","lng":127.23129,"lat":37.249874},"1053":{"name":"개군면주민센터","lng":127.536793,"lat":37.425964},"1054":{"name":"의정부효자초등학교","lng":127.077967,"lat":37.750419},"1084":{"name":"안양초등학교","lng":126.927282,"lat":37.394327},"1025":{"name":"불암로109번길","lng":127.10771,"lat":37.649587},"1085":{"name":"군자로315번길","lng":126.772639,"lat":37.358439},"891":{"name":"부천성곡우편취급국","lng":126.805415,"lat":37.527215},"1055":{"name":"조마루로366번길","lng":126.78305,"lat":37.495907},"1056":{"name":"덕단이로9번길","lng":126.853295,"lat":37.468296},"1057":{"name":"동학산1길","lng":127.075371,"lat":37.223925},"1086":{"name":"동령길","lng":127.072803,"lat":37.061521},"1088":{"name":"이호초등학교","lng":126.860477,"lat":37.286814},"1026":{"name":"다문화길","lng":126.789933,"lat":37.329151},"1027":{"name":"흥덕2로65번길","lng":127.073179,"lat":37.273191},"1058":{"name":"삼천병마로","lng":126.947294,"lat":37.21856},"1089":{"name":"의정부초등학교","lng":127.060127,"lat":37.734757},"1090":{"name":"조원1동주민센터","lng":127.016504,"lat":37.301723},"1002":{"name":"이삭2길","lng":126.837768,"lat":37.312475},"1028":{"name":"대호로117번길","lng":127.053625,"lat":37.163569},"1029":{"name":"신아로92번길","lng":127.490979,"lat":37.258234},"1030":{"name":"구성3로28번길","lng":127.152058,"lat":37.295652},"1059":{"name":"평택항국제여객터미널","lng":126.846178,"lat":36.957166},"1060":{"name":"김포한강2로24번길","lng":126.675247,"lat":37.647185},"1091":{"name":"수목원로468번길","lng":127.050541,"lat":37.175603},"1092":{"name":"평택송탄공단우체국","lng":127.077113,"lat":37.036429},"1003":{"name":"고산로185번길","lng":126.952363,"lat":37.345984},"1004":{"name":"오산대역로132번길","lng":127.059788,"lat":37.169242},"1005":{"name":"승지로69번길","lng":126.809525,"lat":37.370276},"1032":{"name":"법조로149번길","lng":127.070191,"lat":37.293391},"1061":{"name":"세지로94번길","lng":127.020798,"lat":37.259433},"1062":{"name":"월롱우체국","lng":126.789257,"lat":37.777416},"1063":{"name":"양주덕현초등학교","lng":127.080635,"lat":37.79931},"1093":{"name":"안산천동로2길","lng":126.848844,"lat":37.333902},"1094":{"name":"병점2동주민센터","lng":127.043022,"lat":37.211478},"1006":{"name":"서현지구대","lng":127.126281,"lat":37.382309},"1033":{"name":"시흥금바위우편취급국","lng":126.792968,"lat":37.431532},"1064":{"name":"경충대로_2","lng":127.291148,"lat":37.383193},"1065":{"name":"평촌대로401번길","lng":126.947822,"lat":37.406808},"1066":{"name":"율천로8번길","lng":126.784485,"lat":37.665866},"872":{"name":"가구단지중앙길","lng":127.290843,"lat":37.651242},"873":{"name":"일산서구청","lng":126.745475,"lat":37.67795},"874":{"name":"숲속마을1로48번길","lng":126.800228,"lat":37.666686},"1007":{"name":"정조로388번길","lng":127.014989,"lat":37.244591},"1009":{"name":"보화로","lng":126.831705,"lat":37.330649},"1034":{"name":"중부대로223번길","lng":127.040794,"lat":37.276043},"1067":{"name":"화성로","lng":126.931409,"lat":37.247732},"875":{"name":"수내역","lng":127.114289,"lat":37.378469},"1010":{"name":"경수대로","lng":127.021664,"lat":37.249935},"1035":{"name":"신촌4길","lng":126.820093,"lat":37.314508},"1036":{"name":"호동로","lng":127.041509,"lat":37.729791},"1068":{"name":"덕풍로65번길","lng":127.207211,"lat":37.550598},"1069":{"name":"원평2로27번길","lng":127.081361,"lat":36.991125},"876":{"name":"건원대로99번길","lng":127.139295,"lat":37.604937},"1011":{"name":"운중로113번길","lng":127.076091,"lat":37.393053},"1012":{"name":"경수대로555번길","lng":126.957031,"lat":37.372182},"1037":{"name":"동산2로","lng":126.883132,"lat":37.642828},"1070":{"name":"도기5길","lng":127.264547,"lat":37.003218},"877":{"name":"산내로104번길","lng":126.738473,"lat":37.727915},"878":{"name":"고산로151번길","lng":126.955994,"lat":37.346259},"1013":{"name":"광덕산2로","lng":126.845729,"lat":37.33507},"1014":{"name":"분당초등학교","lng":127.129487,"lat":37.378846},"1038":{"name":"광덕3로","lng":126.831577,"lat":37.312606},"1039":{"name":"고양대로1384번길","lng":126.837325,"lat":37.653988},"1071":{"name":"이천우체국","lng":127.442947,"lat":37.275653},"1072":{"name":"금산로","lng":126.936964,"lat":37.370722},"879":{"name":"곤충생태관","lng":127.160486,"lat":37.590008},"1015":{"name":"율마로438번길","lng":126.605154,"lat":37.687984},"1040":{"name":"원종2동주민센터","lng":126.812016,"lat":37.529471},"1041":{"name":"별내중학교","lng":127.112702,"lat":37.710816},"1073":{"name":"은현로","lng":127.023523,"lat":37.874309},"1074":{"name":"모현우체국","lng":127.249377,"lat":37.334809},"880":{"name":"일현로_2","lng":126.763513,"lat":37.694235},"1016":{"name":"도매시장로","lng":126.856724,"lat":37.307705},"1017":{"name":"신구로22번길","lng":127.110144,"lat":37.274299},"1042":{"name":"화중초등학교","lng":126.836024,"lat":37.640923},"1075":{"name":"하오개로","lng":127.05803,"lat":37.390738},"1076":{"name":"관악대로","lng":126.935332,"lat":37.398372},"881":{"name":"평동로","lng":126.992549,"lat":37.259885},"882":{"name":"부천로198번길","lng":126.78816,"lat":37.502247},"883":{"name":"용구대로2790번길","lng":127.109429,"lat":37.334373},"1018":{"name":"연성119안전센터","lng":126.802932,"lat":37.381899},"1044":{"name":"가운로2길","lng":127.156574,"lat":37.601485},"1077":{"name":"드림갤러리","lng":127.145665,"lat":37.374801},"884":{"name":"금령로","lng":127.205696,"lat":37.235088},"1019":{"name":"광교호수로378번길","lng":127.080225,"lat":37.29803},"1045":{"name":"지도로35번길","lng":126.823533,"lat":37.620826},"1046":{"name":"청학로92번길","lng":127.110864,"lat":37.709386},"885":{"name":"일산로_1","lng":126.763065,"lat":37.67952},"887":{"name":"경기예술고등학교","lng":126.761272,"lat":37.50591},"1172":{"name":"곡란중학교","lng":126.929673,"lat":37.372902},"1173":{"name":"갈산로72번길","lng":126.960573,"lat":37.378441},"1174":{"name":"장안지구대","lng":127.009496,"lat":37.295751},"1202":{"name":"성남여수초등학교","lng":127.132979,"lat":37.419665},"1203":{"name":"비산2동주민센터","lng":126.961456,"lat":37.406044},"1204":{"name":"흥안대로517번길","lng":126.975086,"lat":37.400144},"1118":{"name":"신장중학교","lng":127.21876,"lat":37.543145},"1119":{"name":"남여울3길","lng":127.053066,"lat":37.198737},"1144":{"name":"소사본3동주민센터","lng":126.798095,"lat":37.472868},"1145":{"name":"시화초등학교","lng":126.751445,"lat":37.339256},"1146":{"name":"도촌동주민센터","lng":127.152772,"lat":37.416502},"1205":{"name":"수리산로","lng":126.921184,"lat":37.356293},"1206":{"name":"선진4길_2","lng":126.852122,"lat":37.28023},"1120":{"name":"신천6길","lng":126.781892,"lat":37.437505},"1147":{"name":"하남대로787번길","lng":127.20781,"lat":37.537795},"1148":{"name":"역전로","lng":126.740999,"lat":37.352597},"1178":{"name":"안양9동주민센터","lng":126.908394,"lat":37.391454},"1179":{"name":"서현로237번길","lng":127.129386,"lat":37.38541},"1207":{"name":"경수대로733번길","lng":126.948836,"lat":37.386059},"1208":{"name":"군자파출소","lng":126.785335,"lat":37.344335},"1122":{"name":"명학역","lng":126.935593,"lat":37.38446},"1123":{"name":"저동초등학교","lng":126.773901,"lat":37.668019},"1149":{"name":"군포로","lng":126.944647,"lat":37.367692},"1150":{"name":"와동공원로_2","lng":126.820299,"lat":37.340033},"1180":{"name":"문화로","lng":126.774993,"lat":37.762606},"1209":{"name":"청룡1길","lng":126.872219,"lat":37.3608},"1210":{"name":"선일중학교","lng":126.803846,"lat":37.335536},"1211":{"name":"판교로25번길","lng":127.082823,"lat":37.390259},"1124":{"name":"하남대로654번길","lng":127.221729,"lat":37.533156},"1125":{"name":"일산로441번길","lng":126.775473,"lat":37.670022},"1151":{"name":"오리나무로","lng":126.968726,"lat":37.374898},"1152":{"name":"경수대로1201번길","lng":126.91206,"lat":37.416013},"1182":{"name":"능길초등학교","lng":126.764374,"lat":37.336056},"1183":{"name":"부곡로_2","lng":126.861996,"lat":37.330959},"1126":{"name":"마북로154번길","lng":127.124508,"lat":37.303171},"1153":{"name":"정자천로13번길","lng":126.978379,"lat":37.290739},"1154":{"name":"흥안대로456번길","lng":126.978255,"lat":37.393755},"1184":{"name":"시낭북로","lng":126.856617,"lat":37.333566},"1185":{"name":"사동로","lng":127.495173,"lat":37.244345},"1095":{"name":"비전1동주민센터","lng":127.112168,"lat":37.010937},"1096":{"name":"귀인로79번길","lng":126.947711,"lat":37.383846},"1127":{"name":"한신대길","lng":127.023414,"lat":37.193574},"1155":{"name":"진위우체국","lng":127.09047,"lat":37.099217},"1156":{"name":"전주남이길","lng":126.976124,"lat":37.35021},"1186":{"name":"와동중학교","lng":126.830643,"lat":37.338862},"1187":{"name":"판교동주민센터","lng":127.098781,"lat":37.389868},"1098":{"name":"효행로1156번길","lng":127.052289,"lat":37.214322},"1099":{"name":"산성대로","lng":127.146578,"lat":37.441077},"1129":{"name":"송산로339번길","lng":127.133375,"lat":37.67352},"1130":{"name":"경충대로_3","lng":127.291148,"lat":37.383193},"1157":{"name":"당동초등학교","lng":126.9394,"lat":37.346025},"1188":{"name":"선부2동주민센터","lng":126.802662,"lat":37.338624},"1189":{"name":"선부119안전센터","lng":126.804389,"lat":37.333942},"1190":{"name":"서신우체국","lng":126.705399,"lat":37.168941},"1100":{"name":"정왕천로355번길","lng":126.74455,"lat":37.342751},"1131":{"name":"월곶중앙로70번안길","lng":126.740784,"lat":37.390256},"1158":{"name":"노작로4길","lng":127.077615,"lat":37.196712},"1159":{"name":"성남대로2번길","lng":127.109378,"lat":37.335622},"1191":{"name":"청평면주민센터","lng":127.424142,"lat":37.740463},"1192":{"name":"용문로","lng":127.201254,"lat":37.23613},"1101":{"name":"일월천로4번길","lng":126.972553,"lat":37.282579},"1132":{"name":"북촌3길","lng":126.804425,"lat":37.343734},"1160":{"name":"군포로464번길","lng":126.945867,"lat":37.347435},"1161":{"name":"효자길","lng":127.139699,"lat":37.377104},"1193":{"name":"경충대로_1","lng":127.291148,"lat":37.383193},"1102":{"name":"책향기숲길","lng":126.713761,"lat":37.720037},"1103":{"name":"조구나리1길","lng":126.842939,"lat":37.312652},"1104":{"name":"회룡로117번길","lng":127.046852,"lat":37.72806},"1133":{"name":"삼성로87번길","lng":126.93574,"lat":37.341167},"1134":{"name":"안현로서3길","lng":126.927091,"lat":36.987184},"1162":{"name":"용구대로","lng":127.105048,"lat":37.305025},"1163":{"name":"화성제부모세마을","lng":126.624437,"lat":37.168675},"1194":{"name":"운중동주민센터","lng":127.077769,"lat":37.390471},"1105":{"name":"보정역","lng":127.108337,"lat":37.312775},"1135":{"name":"세류3동주민센터","lng":127.025637,"lat":37.269639},"1136":{"name":"경충대로2285번길","lng":127.472149,"lat":37.262942},"1164":{"name":"송정동주민센터","lng":127.256024,"lat":37.417441},"1165":{"name":"관악역_1번출구","lng":126.9085,"lat":37.419568},"1195":{"name":"용인동천동우체국","lng":127.092493,"lat":37.338531},"1196":{"name":"장안로52번길","lng":127.145729,"lat":37.369979},"1106":{"name":"나루터길","lng":126.624143,"lat":37.234306},"1107":{"name":"관문길22번길","lng":127.493369,"lat":37.491937},"1108":{"name":"호계2동주민센터","lng":126.953266,"lat":37.380641},"1137":{"name":"평촌길","lng":127.317559,"lat":37.354426},"1138":{"name":"안양로_2","lng":126.920243,"lat":37.399687},"1169":{"name":"능평119안전센터","lng":127.168757,"lat":37.357219},"1166":{"name":"능평로30번길","lng":127.163263,"lat":37.355248},"1197":{"name":"율목초등학교","lng":127.064502,"lat":37.236763},"1109":{"name":"평촌1로8번길","lng":127.152669,"lat":37.285389},"1110":{"name":"중부길","lng":127.421278,"lat":37.075579},"1111":{"name":"술이홀로","lng":126.87445,"lat":37.851382},"1139":{"name":"오전초등학교","lng":126.972446,"lat":37.354979},"1140":{"name":"경수대로","lng":127.021664,"lat":37.249935},"1141":{"name":"달미로","lng":126.815499,"lat":37.341411},"1167":{"name":"엘에스로_1","lng":126.944194,"lat":37.372769},"1168":{"name":"와동로1길","lng":126.826422,"lat":37.332282},"1198":{"name":"고산로211번길","lng":126.950696,"lat":37.343604},"1199":{"name":"태봉로","lng":127.231215,"lat":37.391965},"1113":{"name":"세마역로19번길","lng":127.044114,"lat":37.184248},"1142":{"name":"사세충렬문","lng":126.830655,"lat":37.337312},"1200":{"name":"샘마을길_2","lng":126.951427,"lat":37.217473},"1201":{"name":"당정역_1번출구","lng":126.948371,"lat":37.34369},"1114":{"name":"원당로141번길","lng":126.838151,"lat":37.665144},"1115":{"name":"동탄우체국","lng":127.078069,"lat":37.207727},"1116":{"name":"프린스관광호텔","lng":126.389172,"lat":37.449665},"1170":{"name":"화정로1길","lng":126.81876,"lat":37.332126},"1171":{"name":"양벌초등학교","lng":127.2558,"lat":37.379307},"1117":{"name":"신원로1길","lng":126.888297,"lat":37.662017}}